Title,Power,Type,Time,LocationLat,LocationLon
ACWA Kom Ombo solar farm,200,Solar,2024,24.4667,32.9501
Ain Sokhna Solar,100,Solar,2025,29.6326,32.3301
Zinder solar farm,100,Solar,2026,13.8086,8.9827
Benguébougou solar farm,"22,2",Solar,2024,9.525,-5.845
Kisumu Solar One solar farm,40,Solar,2024,0.4382,32.6104
Abyodos Kom Ombo solar farm,560,Solar,2024,24.4693,32.8401
Sannaspos Solar PV Project,75,Solar,2024,-29.1909,26.595
Dekemhare solar farm,30,Solar,2025,15.0501,39.0201
Grootspruit Solar PV Project,75,Solar,2025,-27.7375,26.775
Noor Atlas Bouanane solar farm,30,Solar,2024,32.0392,-3.0493
Redstone Concentrated Solar Project,100,Solar,2024,-28.2919,23.3407
Pilanesberg Platinum Mine solar farm,35,Solar,2026,-25.1055,26.9885
Jerada-Marco Photovoltaique solar farm,10,Solar,2024,34.3058,-2.1772
Grootfontein PV solar farm,75,Solar,2025,-32.9583,19.9319
Quilemba solar farm,35,Solar,2024,-14.9176,13.4968
Sedibelo Platinum Mines Hybrid solar farm,35,Solar,2026,-33.1294,21.5321
Soma solar farm (The Gambia),70,Solar,2026,13.3978,-15.7263
Harmony Free State Solar Plant,137,Solar,2025,-27.2998,27.1195
Doornhoek solar farm,120,Solar,2025,-26.434,26.2843
Sola Group Tronox I solar farm,100,Solar,2024,-26.094,26.1684
Chimuara Solar Project,30,Solar,2024,-17.7835,35.4036
Siaya County solar farm,40,Solar,2024,-0.0604,34.2001
Kalulushi Concentrating Solar Power Plant,150,Solar,2026,-12.7176,28.1809
Coega Green Ammonia Plant solar farm,1350,Solar,2025,-33.6816,25.7272
Selebi-Phikwe solar farm,50,Solar,2024,-21.9785,27.8374
ReNew Green Hydrogen solar farm,284,Solar,2026,29.7135,32.3048
OCP-Khouribga I solar farm,30,Solar,2024,32.8744,-6.9199
Walkers Ferry solar farm,30,Solar,2025,-15.5283,34.8324
Centrales d’Energie Renouvelable de N’Djamena solar farm,100,Solar,2024,12.1192,15.0503
Wolenchiti solar farm,150,Solar,2025,8.6605,39.4205
Morocco-UK Solar Power,7000,Solar,2030,28.5274,-10.0316
Mhondoro-Ngezi solar farm,35,Solar,2024,-16.3709,28.8568
Swakopmund Green Hydrogen solar farm,85,Solar,2024,-24.2513,15.2314
Sabodala-Massawa Mine solar farm,37,Solar,2025,13.1902,-12.1146
Khoumagueli solar farm,40,Solar,2024,10.2803,-12.4399
Noor Midelt solar farm,400,Solar,2024,32.8838,-4.7101
Sable solar farm,50,Solar,2025,-18.798,29.7986
Ouagadougou solar farm,150,Solar,2031,12.4143,-1.5152
Poro solar farm,66,Solar,2024,9.451,-5.651
Du Plessis Dam PV solar farm,75,Solar,2024,-30.6315,24.0398
Chidome Ward solar farm,"107,7",Solar,2025,-18.9721,27.4051
Rustenberg Platinum Mine solar farm,80,Solar,2025,-25.6789,27.3085
Globeleq Green Hydrogen solar farm,1500,Solar,2026,29.7135,32.3048
Boa Sorte Solar Plant,44,Solar,2025,-17.1901,-46.5901
Verona Town Solar,250,Solar,2024,43.1393,-75.5708
Monarch solar farm (United States),74,Solar,2024,27.0307,-80.5248
Georges Lake solar farm,74,Solar,2025,30.39,-83.344
Middlebrook Creek Solar,609,Solar,2024,31.5552,-94.7919
Chalhuanca solar farm,"106,5",Solar,2025,-15.6493,-71.6549
Coquimbo (Mytilineos) solar farm,86,Solar,2024,-29.9619,-71.2798
Aratina Solar Center,200,Solar,2025,34.988,-117.5716
Cassville Solar,50,Solar,2024,42.7538,-90.9274
Morada Do Sol Solar Complex,63,Solar,2025,-16.3024,-47.7027
Cottontail Solar,20,Solar,2024,40.9899,-76.4942
El Gabán PV solar farm,120,Solar,2026,4.0999,-72.9088
Mata De Palma Washington Solar Park,73,Solar,2025,18.6478,-69.5895
Rugged Solar,80,Solar,2024,32.6861,-116.2806
Mitchell Creek solar farm,74,Solar,2025,30.9285,-87.2641
Parina solar farm,248,Solar,2025,-23.6231,-70.376
Leyda solar farm,96,Solar,2024,-33.0562,-71.6072
Elizabeth Solar Plant,125,Solar,2024,30.8198,-92.9718
Oak Hill - Dry Creek solar farm,391,Solar,2024,32.2123,-94.7363
Milagres Solar Park,42,Solar,2024,-7.3859,-38.9882
Honeysuckle solar farm,150,Solar,2024,41.719,-86.464
Hecate Energy Columbia County solar farm,60,Solar,2025,42.175,-73.5904
Jacaranda solar farm,187,Solar,2024,-9.525,-40.473
Morada Do Sol Solar Complex,63,Solar,2025,-16.3089,-47.7072
Este Cabreto solar farm,50,Solar,2024,18.4996,-69.8308
Duane Arnold Solar,50,Solar,2024,41.7172,-95.1511
Goldenrod Creek Solar,660,Solar,2024,29.0647,-96.5896
Redlands solar farm,74,Solar,2025,25.5429,-80.5467
Frank solar farm,100,Solar,2025,2.6891,-75.3299
Copper Rays Solar Project,700,Solar,2028,36.1477,-116.069
Union Ridge Solar,108,Solar,2024,39.9841,-82.6413
Ligustro Solar Plant,100,Solar,2024,8.2705,-75.0095
Eloy Valley Solar Project,250,Solar,2025,32.7283,-111.5943
Marangatu PV Solar Complex,30,Solar,2024,-4.1177,-41.4917
Jaíba PV Solar Plant,40,Solar,2024,-15.3083,-43.6407
Jackson Solar,125,Solar,2025,42.2514,-84.2112
Monte Verde Solar Project,37,Solar,2024,-5.4204,-36.2029
Mowata Solar,150,Solar,2025,30.3918,-92.4044
Monte Verde Solar Project,46,Solar,2024,-5.4361,-36.2126
Lizama PV Solar Project,40,Solar,2025,4.0999,-72.9088
Trade Post solar farm,200,Solar,2025,39.2534,-87.4912
Jamaica Public Service Solar Plant,25,Solar,2024,18.1851,-77.3948
Delilah Solar Energy,310,Solar,2024,33.4816,-95.2693
Beautyberry solar farm,74,Solar,2024,26.3604,-81.0265
San Alejo Solar Park,20,Solar,2025,4.2864,-74.8122
Copperton Solar Park,25,Solar,2025,40.5766,-112.0846
Chirigues solar farm,100,Solar,2024,-35.9644,-72.339
Presidente JK solar farm,30,Solar,2024,-18.6901,-44.0701
Milagres Solar Park,42,Solar,2024,-7.3906,-38.9811
Pauna solar farm,671,Solar,2024,-22.3434,-69.664
Highland (Flordia) solar farm,75,Solar,2024,27.2821,-81.4256
Bear Branch Solar,35,Solar,2024,36.3404,-80.1297
Codazzi PV Solar Project,20,Solar,2025,9.8169,-73.5021
Grant County solar farm,200,Solar,2024,42.719,-90.701
Dourado PV Solar Complex,40,Solar,2024,-8.7488,-38.3131
Jvr Energy Park solar farm,90,Solar,2026,32.624,-116.175
Santa Luiza solar farm,50,Solar,2024,-6.846,-36.9301
Accalia Point Solar,221,Solar,2025,25.9924,-97.3983
Newton Jasper Solar,52,Solar,2025,38.9361,-88.2781
Flag City Solar,167,Solar,2024,28.9928,-96.3709
Highlands (Dominion) Solar Project,51,Solar,2027,37.1226,-82.3597
Jaíba PV Solar Plant,40,Solar,2024,-15.3407,-43.626
Clear Fork Creek Solar,600,Solar,2025,29.2837,-96.821
GEB Solar,60,Solar,2026,34.4124,-80.0419
Graviola Solar Plant,75,Solar,2025,-8.2938,-42.3565
Black Rock Solar,100,Solar,2024,46.5201,-120.0152
Pampa Yolanda Hybrid solar farm,388,Solar,2025,-25.2602,-69.7004
Jaíba PV Solar Plant,40,Solar,2024,-15.3418,-43.6134
Hunters Cove Solar,50,Solar,2024,35.3977,-81.914
Ridgely Solar,254,Solar,2024,36.3063,-89.462
Laurel Branch Solar,80,Solar,2025,36.9209,-78.1727
Rutland Center Solar,110,Solar,2025,44.286,-76.0261
Novo Oriente solar farm,48,Solar,2024,-20.6701,-51.3401
Tehuacana Creek Solar,700,Solar,2024,31.9141,-96.4135
Dinosolar,240,Solar,2026,42.9237,-106.384
Fox Coulee Solar Park,93,Solar,2024,51.6114,-112.1764
Cattlemen solar farm,240,Solar,2024,31.0457,-96.8586
Rough Hat solar farm,400,Solar,2026,36.089,-115.9036
Jaíba PV Solar Plant,20,Solar,2024,-15.3321,-43.6081
Horseshoe (Invenergy) solar farm,180,Solar,2025,42.5708,-77.453
Centauro PV solar farm,100,Solar,2024,4.7504,-75.9141
Orion Milam Solar,315,Solar,2024,30.8246,-96.9755
Efigen C04 solar farm,99,Solar,2025,8.5032,-75.51
Marangatu PV Solar Complex,30,Solar,2024,-4.1204,-41.435
Bellefield Solar And Energy Storage Farm,500,Solar,2025,35.0178,-118.0687
Quest Solar,40,Solar,2026,32.9765,-81.2268
Pineside Solar,75,Solar,2027,37.7005,-78.5049
Cramer Creek Solar,395,Solar,2027,38.5808,-103.9826
Pecan Prairie North Solar,360,Solar,2025,31.1372,-96.2693
Ruphay solar farm,"93,2",Solar,2024,-16.4355,-71.8384
Box Canyon solar farm,300,Solar,2025,33.0972,-111.2783
Pineapple solar farm,74,Solar,2024,27.2551,-80.5712
Hendry Isles solar farm,74,Solar,2025,26.7491,-81.1921
Risen Energy solar farm,117,Solar,2024,24.5227,-104.772
Monte Verde Solar Project,40,Solar,2024,-5.4168,-36.2187
San Mateo solar farm,80,Solar,2025,4.7938,-75.9927
Woodyard solar farm,74,Solar,2024,26.4093,-81.0485
Escobal solar farm,99,Solar,2024,4.567,-74.9542
Babbitt Ranch Solar,60,Solar,2025,32.0838,-110.867
Posey solar farm,190,Solar,2024,38.1301,-87.9335
Presidente JK solar farm,30,Solar,2024,-18.6901,-44.0801
Wayra solar farm,33,Solar,2024,-25.4067,-70.4798
Boa Sorte Solar Plant,44,Solar,2025,-17.2001,-46.6401
Tabletop Solar Project,80,Solar,2024,42.9595,-74.5668
Madison Solar,63,Solar,2024,38.2878,-77.8401
Stonecrop Solar,100,Solar,2024,36.9707,-88.1984
Mt. Olive Creek Solar Project,60,Solar,2024,37.0133,-85.5058
Naduah Solar,182,Solar,2025,31.5215,-96.6739
Novo Oriente solar farm,48,Solar,2024,-20.6701,-51.3301
Broadview Solar,80,Solar,2024,45.7776,-108.554
Bas Saint Laurent solar farm,40,Solar,2026,48.1325,-68.2616
Moon Corner solar farm,60,Solar,2026,37.89,-76.54
Flat Run Solar Project,55,Solar,2024,37.3741,-85.353
Riverstart Solar Park,100,Solar,2024,40.0556,-85.1266
Tocopilla solar farm,"227,5",Solar,2025,-23.6217,-70.3776
Boa Sorte Solar Plant,44,Solar,2025,-17.2001,-46.5901
Cuestecitas Solar Park,200,Solar,2024,11.4354,-72.9002
Petersburg Solar,250,Solar,2024,38.52,-87.34
La Mata solar farm (Colombia),80,Solar,2025,8.6171,-73.8017
La Virginia solar farm,80,Solar,2025,4.9501,-75.958
Lunis Creek Solar,617,Solar,2024,28.9161,-96.3842
Watkins Road Solar Project,20,Solar,2024,43.0613,-75.0558
Dog Corners Solar Project,20,Solar,2024,42.7443,-76.6653
Aratina Solar Center,200,Solar,2025,35.063,-118.0878
Wayra solar farm,33,Solar,2024,-25.4067,-70.4798
Los Pinos solar farm,180,Solar,2026,5.9762,-74.5778
Eleven Mile Solar Center,300,Solar,2024,32.861,-111.5919
Westland solar farm,246,Solar,2024,36.1457,-119.9051
Mountain Daisy solar farm,162,Solar,2025,40.596,-108.846
Three Corners Solar,109,Solar,2024,44.3327,-69.781
Ingenio Magdalena Sugar solar farm,65,Solar,2025,14.6018,-90.4853
Jaíba PV Solar Plant,40,Solar,2024,-15.3032,-43.6096
Alina solar farm,245,Solar,2026,29.0645,-98.2233
Las Palmeras solar farm,200,Solar,2025,10.1502,-73.9616
Fairbanks Solar,250,Solar,2025,39.0952,-87.4056
Liberty 1 Solar Plant,72,Solar,2024,29.9875,-94.9819
Cuestecitas Solar Park,200,Solar,2024,11.4354,-72.9002
Wild Hill Solar,96,Solar,2025,39.2955,-77.8783
Peony (Lightsource) solar farm,300,Solar,2024,38.9357,-87.1418
Duck Creek solar farm,20,Solar,2025,37.6632,-88.9841
Merry Point solar farm,100,Solar,2024,37.7673,-76.4524
Tikuna solar farm,"59,5",Solar,2024,8.4788,-75.8951
Pasacaballo Solar Park,100,Solar,2024,4.5158,-75.6988
Fountain Creek Solar,80,Solar,2024,36.6406,-77.5768
Mayapple Solar,224,Solar,2025,41.0552,-86.7132
Orion Milam Solar,302,Solar,2024,30.8246,-96.9755
Eldena Solar,175,Solar,2024,41.7711,-89.4101
Dourado PV Solar Complex,40,Solar,2024,-8.8522,-38.2299
American Beech Solar,110,Solar,2024,36.1448,-77.5095
Blue Sky solar farm,300,Solar,2024,41.132,-88.36
Fox Trail solar farm,74,Solar,2025,27.8461,-80.674
Oro y Cielo Solar Plant,"96,2",Solar,2024,-33.086,-70.8862
Jamaica Public Service Solar Plant,25,Solar,2024,18.1851,-77.3948
Changos Solar Plant,232,Solar,2025,-23.1014,-70.4687
Wolfskin Solar,38,Solar,2024,33.8815,-83.2467
Dourado PV Solar Complex,40,Solar,2024,-8.7565,-38.3135
Hyco Solar,80,Solar,2026,36.4846,-79.1331
Mammoth Solar,300,Solar,2024,41.0953,-86.6916
Presidente JK solar farm,30,Solar,2024,-18.7201,-44.0601
Porto do Açu solar farm,800,Solar,2026,-21.8384,-41.0412
Prairie Ronde Solar,145,Solar,2024,30.61,-92.17
Paris solar farm (United States),200,Solar,2024,42.6621,-88.0155
Tehuacana Creek Solar,700,Solar,2024,31.9141,-96.4135
Monte Verde Solar Project,49,Solar,2024,-5.4185,-36.2311
Goonies Solar Project,194,Solar,2025,41.1979,-77.2188
High River Energy solar farm,90,Solar,2024,42.9019,-74.1327
Tacna (Univergy) Solar PV Plant,700,Solar,2024,-18.0193,-70.2476
Vacherie Solar Energy Center,150,Solar,2024,29.978,-90.7277
Sol Del Loa Solar Plant Optimization Project,448,Solar,2025,-22.3445,-69.6616
Stern Solar,20,Solar,2026,42.9129,-73.6004
Cuestecitas Solar Park,200,Solar,2024,11.4354,-72.9002
Bochica Solar Plant,20,Solar,2025,4.0999,-72.9088
Starr Solar Ranch,136,Solar,2024,26.5234,-99.0171
Ghungnam Solar Project,709,Solar,2025,-31.7613,-71.3188
North Orange solar farm,74,Solar,2026,27.5142,-80.5707
Centrale Électrique De L'Ouest Guyanais (Ceog) solar farm,55,Solar,2024,5.4996,-53.7389
Millington solar farm,74,Solar,2024,35.3515,-89.8547
Chill Sun Solar Project,2250,Solar,2027,37.1375,-116.8533
Tikuna solar farm,"59,5",Solar,2024,8.4788,-75.8951
Owens Creek Solar,500,Solar,2028,42.0601,-88.81
Tikuna solar farm,119,Solar,2025,8.4788,-75.8951
Westland solar farm,250,Solar,2024,36.1225,-119.9232
Uriana PV Solar Project,400,Solar,2024,4.0999,-72.9088
Sunbury Solar,20,Solar,2024,40.862,-76.7936
El Rocio solar farm,110,Solar,2026,4.0999,-72.9088
Nolin Hills solar farm,300,Solar,2026,45.5546,-119.1143
Mason County solar farm,250,Solar,2024,38.6194,-83.8897
Wildcat Solar Power Plant,90,Solar,2024,35.5805,-108.9023
Granite Hill Solar,70,Solar,2024,39.8915,-77.1628
Andino Occidente Solar Project,"150,3",Solar,2026,-34.267,-70.7936
Peeler Solar,200,Solar,2024,28.7017,-98.4434
Don Humberto Solar Park,79,Solar,2024,-33.4361,-70.6096
Wilmington (Illinois) Solar,20,Solar,2024,41.3282,-88.1515
Terra Energia Renewables Solar Park,513,Solar,2025,-25.3953,-69.8573
Windica solar farm,"25,2",Solar,2025,-14.1832,-75.7128
Horseshoe Bend Solar Project,60,Solar,2024,37.2644,-85.5717
Vista Alegre solar farm (Brazil),41,Solar,2025,-15.8254,-43.4471
Hart Solar,125,Solar,2025,43.5278,-86.1195
Ubaté Solar Generation Park,28,Solar,2024,5.3372,-74.4893
Pradera solar farm,40,Solar,2024,7.6393,-73.3279
Hog Bay solar farm,74,Solar,2025,27.0782,-81.8321
Gallivant Ferry Solar,46,Solar,2024,33.7452,-78.8321
Sierras de Ullum Photovoltaic Solar Park,80,Solar,2024,-31.3667,-68.6728
Inti Pacha Solar Complex,308,Solar,2024,-22.3445,-69.6616
Yaupon Solar Project,200,Solar,2025,31.0444,-96.8514
Gabriela Photovoltaic Solar Park,264,Solar,2024,-31.7613,-71.3188
Presidente JK solar farm,30,Solar,2024,-18.7101,-44.0501
Bom Lugar Solar Park,36,Solar,2024,-6.3679,-38.9636
Moraine solar farm,94,Solar,2025,42.4298,-77.725
Graviola Solar Plant,75,Solar,2025,-8.2636,-42.3566
Santa Teresa Solar,100,Solar,2024,31.8693,-106.678
Illa solar farm,385,Solar,2024,-16.721,-71.8928
Marangatu PV Solar Complex,30,Solar,2024,-4.0995,-41.4833
Boa Sorte Solar Plant,44,Solar,2025,-17.2001,-46.6301
Garcitas Creek Solar,202,Solar,2025,28.8114,-96.648
Sky High Solar,20,Solar,2024,42.8389,-76.0902
Kingwood Solar,175,Solar,2024,39.782,-83.83
Boa Sorte Solar Plant,44,Solar,2025,-17.2011,-46.6246
Jayhawk solar farm,101,Solar,2025,32.2907,-100.8657
Esmeralda (NextEra) Solar Energy Center Project,500,Solar,2025,37.8067,-117.642
Shepherd's Run Solar,60,Solar,2025,42.1614,-73.5745
Three W Solar,110,Solar,2025,32.0309,-97.1666
Wild Quail solar farm,74,Solar,2024,30.8981,-86.2501
Pawnee Solar Project,500,Solar,2027,40.184,-103.639
Boa Sorte Solar Plant,44,Solar,2025,-17.1901,-46.6301
Platteview Solar,81,Solar,2024,41.191,-96.3794
Efigen C03 solar farm,99,Solar,2025,9.1447,-75.5109
Kensington Solar Project,145,Solar,2024,39.946,-82.8934
OCI SunRay solar farm,200,Solar,2024,29.2918,-99.6124
Presidente JK solar farm,30,Solar,2024,-18.6901,-44.0701
Desert Quartzite solar farm,300,Solar,2024,33.565,-114.753
El Guincho solar farm,86,Solar,2025,18.5214,-69.6888
Renewstable Barbados solar farm,50,Solar,2025,13.1355,-59.4516
Helios Cabrera solar farm,100,Solar,2026,3.985,-74.4844
Clear View (New York) Solar,20,Solar,2025,42.5706,-77.4638
Dolet Hills Solar,240,Solar,2025,32.0412,-93.5712
Don Sebastian Solar Park,47,Solar,2024,-32.4598,-71.2544
Scottford Solar Power Project,58,Solar,2024,53.8045,-113.0886
Cane Creek Solar,79,Solar,2024,31.977,-88.8876
Boulder Solar,128,Solar,2025,35.8388,-114.9642
Sarimento solar farm,35,Solar,2024,-31.9801,-68.495
Eland Solar & Storage Center,200,Solar,2024,35.2167,-117.977
Cattleya Del Huila Solar Project,100,Solar,2026,3.4257,-74.7008
Sol de Verano 2 solar farm,"92,8",Solar,2025,-15.8414,-70.0375
Escalante (Tri-State Generation) solar farm,200,Solar,2024,35.3803,-108.537
Steward Creek Solar,600,Solar,2027,41.8143,-88.9899
Mohawk Solar,90,Solar,2024,42.8871,-74.6378
Green Pasture solar farm,74,Solar,2025,27.0231,-81.7771
Eldora solar farm,200,Solar,2025,28.866,-96.1217
Bear Point Solar,74,Solar,2026,35.2637,-77.799
Ticul Solar Park,104,Solar,2025,20.3644,-89.5543
INEOS Hickerson solar farm,310,Solar,2025,31.9057,-97.6411
Grassy Knoll Solar Project,20,Solar,2024,43.0654,-74.8437
Sacramento Valley Energy Center solar farm,200,Solar,2024,38.5715,-121.1845
Dulles solar farm,100,Solar,2026,38.9501,-77.5
Texas Solar Nova,200,Solar,2024,33.3206,-100.9817
Coffeen solar farm,44,Solar,2025,37.6632,-88.9841
Ostera Solar,80,Solar,2024,46.5288,-119.9792
Wayland Solar,120,Solar,2026,42.5644,-77.6261
Atlas solar farm,300,Solar,2024,33.9434,-113.7917
Greenwood Solar,100,Solar,2024,38.4912,-77.9618
Pattersonville solar farm,20,Solar,2024,42.8808,-74.0951
Tangara solar farm,"99,9",Solar,2024,8.8781,-75.6225
Dourado PV Solar Complex,40,Solar,2024,-8.8696,-38.2395
Morovis Solar,51,Solar,2024,18.3081,-66.4093
Gualanday PV Solar Park,20,Solar,2024,4.0999,-72.9088
Atacama (Mytilineos) solar farm,165,Solar,2024,-27.171,-69.736
Raceway Solar,50,Solar,2025,38.9101,-75.5882
Plan Sonora 3 solar farm,1000,Solar,2025,31.0028,-112.6221
CPV Backbone Solar,175,Solar,2025,39.4287,-79.1925
Rocket Solar,80,Solar,2024,41.6363,-112.4441
Sculpin Solar,180,Solar,2025,41.3646,-84.8438
Bellefield Solar And Energy Storage Farm,500,Solar,2026,35.063,-118.0878
Russellville Solar,145,Solar,2024,36.8237,-86.8834
AES Maui Kuihelani Solar Hybrid,60,Solar,2024,20.8439,-156.485
Enterprise solar farm,80,Solar,2024,50.3777,-113.3491
Dogwood Creek Solar,435,Solar,2025,30.2238,-97.3826
Marangatu PV Solar Complex,30,Solar,2024,-4.1266,-41.4455
Mountain Holly Solar,20,Solar,2024,40.9875,-76.4892
Chame solar farm,20,Solar,2024,8.6187,-79.8318
Heritage Prairie Renewable solar farm,300,Solar,2024,41.1822,-88.1115
Big Fork Solar,75,Solar,2026,33.1353,-81.2391
Waco Solar,400,Solar,2024,31.7104,-96.8187
Twin solar farm,100,Solar,2024,4.441,-75.2514
Wimke PV Solar Park,100,Solar,2024,4.0999,-72.9088
Sloughhouse Solar,50,Solar,2024,38.4676,-121.1845
Jaisalmer Manufacturing (Adani Group) solar farm,250,Solar,2026,26.9104,70.9104
Chongqing Shizhu (China Nuclear) solar farm project,400,Solar,2025,30.001,108.1198
Jhansi solar park,600,Solar,2025,25.4377,78.5481
Gansu Jiayuguan 14th Five-Year Plan Second Group solar farms,100,Solar,2024,36.761,98.091
Mapanuepe Floating Solar Power Project,251,Solar,2024,14.9814,120.2904
Pavagada (IRCON) solar plant,500,Solar,2024,14.1056,77.2946
Apulid Solar Project,50,Solar,2025,16.4825,121.315
Pooneryn solar farm,100,Solar,2025,9.5043,80.2124
Guizhou Weining Bandi Shuangshishan Agriculture solar farm,110,Solar,2024,27.0349,104.0673
Aqaba Special Economic Zone solar farm,530,Solar,2028,29.5344,35.0078
Sapang Balen Solar 1 Power Project,96,Solar,2025,15.2254,120.5446
Tantangan (Apolaki) Solar Power Project,40,Solar,2026,7.4395,124.6325
Ayg-1 solar farm,200,Solar,2025,40.3836,43.8736
Opus Solar Power Project,151,Solar,2026,16.7636,121.2424
Ayun Pa solar farm,25,Solar,2025,13.8001,108.001
Qinghai Gonghe 1000 MW (China Power Construction) solar farm,100,Solar,2024,36.3797,100.0053
Guizhou Nayong Shuguang Agriculture solar farm,200,Solar,2024,27.2859,105.2866
Feni solar farm,100,Solar,2028,22.7901,91.3747
Xinjiang Mulei (Huadian) Integrated Wind/Solar/Storage complex,400,Solar,2024,43.832,90.2925
Feni solar farm,100,Solar,2028,23.2279,91.3118
Denizli solar farm,20,Solar,2025,37.7822,29.0914
Gadag Amazon Solar Wind Farm,200,Solar,2024,15.7373,75.9408
NKS One II Floating Solar Project,90,Solar,2026,13.782,122.9477
Ramadi solar farm,100,Solar,2024,33.4206,43.3078
Shafag Solar Plant,240,Solar,2026,39.3987,47.0245
Kutchh Manufacturing (Adani Group) solar farm,333,Solar,2024,23.8424,69.7344
Palauig Solar Power Project,50,Solar,2024,15.3287,119.9725
Pasuquin-Burgos Solar Power Plant,49,Solar,2026,16.4595,121.2039
Feni solar farm,100,Solar,2028,23.2279,91.3118
Shaanxi Wubu wind and solar farm with storage,100,Solar,2024,37.578,110.696
Naga (Camarines Sur) Solar Power Project,1200,Solar,2026,13.6353,123.2526
Dawtec-Looop-Staunch solar farm,15,Solar,2025,33.6278,35.8499
Fujian Longhai Cankun Industrial Park Distributed solar farm,43,Solar,2026,24.4937,117.944
Rengali floating solar farm,300,Solar,2025,21.2777,85.0307
Jaisalmer Manufacturing (Adani Group) solar farm,250,Solar,2024,26.6899,71.2766
Leyte solar farm,240,Solar,2025,11.3447,124.5236
SP - Medco West Bali solar farm,25,Solar,2024,-8.3351,115.2558
Vajiralongkorn Dam solar farm,250,Solar,2031,14.7994,98.5967
Masdar Amarah Solar,100,Solar,2025,31.8333,47.1501
San Pedro Floating Solar Power Project,200,Solar,2026,14.369,121.0505
Shandong Pingyin Meiguizhen (CGN) solar farm,70,Solar,2024,36.2899,116.4493
Kananga-Ormoc II Solar Power Project,300,Solar,2025,11.0493,124.6287
Tuy 4 Batangas Solar Power Project,50,Solar,2024,16.9292,121.1764
"Qinghai Gonghe 1000 MW ""Source/Grid/Load/Storage"" (Fushan) solar farm",700,Solar,2024,35.9868,100.2337
Cadiz City Solar Power Project,56,Solar,2025,10.8739,123.2496
"Qinghai Gonghe 1000 MW ""Source/Grid/Storage/Load"" (China Energy Investment) solar project",100,Solar,2024,36.3797,100.0053
NEOM Green Hydrogen solar farm,2000,Solar,2026,28.0001,35.1794
Hunan Guiyang Leipingzhen Qinglanxiang solar farm,300,Solar,2024,25.9785,112.7472
Shaanxi Wubu wind and solar farm with storage,100,Solar,2025,37.578,110.696
Olongapo solar farm,212,Solar,2025,14.8572,120.2983
Madargonj (RPCL) solar farm,140,Solar,2024,24.8378,89.6906
Nam Theun 2 solar farm,240,Solar,2024,17.9965,104.9539
PP-I solar farm,81,Solar,2024,12.9753,77.7258
Shandong Zhaoyuan Fushan Longwanggou solar farm,300,Solar,2024,37.4014,120.5637
Rizal Floating Solar Project,200,Solar,2026,8.6566,123.4217
South Sumatra solar farm,200,Solar,2024,-3.4497,104.6197
Terra solar farm,600,Solar,2026,14.001,121.001
Total-Artawi Solar PV Park,500,Solar,2024,30.5001,47.8001
Silay 2a Solar Power Project,30,Solar,2026,10.3003,123.8003
Sibline solar farm,15,Solar,2025,33.6221,35.441
Neepco Odisha solar farm,200,Solar,2024,20.7374,84.6893
Dầu Tiếng (Xuan Cau) solar farm,90,Solar,2025,11.4866,106.1982
Ta’anach solar farm,250,Solar,2024,32.6381,35.1964
Javed solar farm,"49,5",Solar,2024,34.6823,71.4284
Bukhara solar farm,250,Solar,2024,39.3045,64.0734
San Manuel (AboitizPower) Solar Power Plant,84,Solar,2026,15.1975,120.9936
Maragondon-Naic-Tanza 2 Solar Power Project,160,Solar,2025,14.3318,120.7703
Vajiralongkorn Dam solar farm,50,Solar,2027,14.7994,98.5967
Parbhani (Renew) solar farm,58,Solar,2025,19.2903,76.6029
Helios Green Ammonia solar farm,700,Solar,2026,24.7072,54.8167
San Ildefonso (Team Philippines) solar farm,44,Solar,2024,15.072,120.9496
Jiangsu Lianyun Meida Banqiao Fishery solar farm,100,Solar,2024,34.661,119.454
Padre Garcia II solar farm,1203,Solar,2026,13.8733,121.2402
Guizhou Liuzhi Special Zone Laohudaping solar farm,100,Solar,2024,26.5964,104.828
Jiangsu Dantu Baoyanzhen (Huarun) Agriculture solar farm,130,Solar,2024,32.1339,119.4284
Jaisalmer Manufacturing (Adani Group) solar farm,250,Solar,2024,26.6899,71.2766
Shindasan Energy solar farm,90,Solar,2025,34.501,126.719
Gamu (Pilipinas Faraday Energy) Solar Power Project,100,Solar,2025,16.7306,121.5407
Iba Palauig Solar Power Project,960,Solar,2024,15.3779,120.0391
Samarkand solar farm,220,Solar,2024,41.356,69.3689
Matarbari solar farm,50,Solar,2024,21.4157,91.5308
Bolbok 2 Solar Power Project,75,Solar,2024,15.1535,121.3182
Qinghai Delingha (China Guangdong Nuclear) Heating/Storage solar complex,800,Solar,2024,37.7743,96.7203
Guizhou Guanling Baiyan Agriculture solar farm,200,Solar,2024,25.9383,105.3569
Sapang Balen Solar 2 Power Project,93,Solar,2026,15.2254,120.5446
Sur Hydrogen Culster solar farm,1900,Solar,2030,22.5654,59.5058
Lal-lo Solar Power Project,95,Solar,2028,18.2001,121.662
Budai solar farm,150,Solar,2025,23.3776,120.1837
Jubail 3B Solar PV Plant,61,Solar,2024,27.0112,49.6582
Guizhou Guanling Zuanziyan Agriculture solar farm,200,Solar,2024,25.9209,105.4472
San Pablo (Solar Valley) Solar Power Project,79,Solar,2026,16.2948,120.8512
Taguig Floating Solar Power Project,200,Solar,2026,14.5141,121.0615
Chishtian solar farm,100,Solar,2024,29.746,72.8315
Ixus Bugallon Solar Power Project,275,Solar,2026,16.3735,121.3939
Ecosys-Kaco solar farm,15,Solar,2025,33.6278,35.8499
Shuaibah 2 solar farm,2060,Solar,2025,25.6243,42.3528
Jiangxi Nanchang Youlan Dutou solar farm,40,Solar,2024,28.5451,115.9464
Jaisalmer Manufacturing (Adani Group) solar farm,250,Solar,2025,26.6899,71.2766
Gazaria solar farm,50,Solar,2024,23.5803,90.6407
Damascus Solar,300,Solar,2024,33.3653,36.1092
Hubei Jianli Gongchang Fenyan solar farm,300,Solar,2024,30.0074,113.071
Brunei PV solar farm,30,Solar,2025,4.9451,114.9729
Shandong Binzhou Zhanhua (Runhua) solar farm,200,Solar,2024,37.7002,118.1162
Batam Bintan Karimun solar farm,1000,Solar,2024,1.1217,104.4361
Tarlac (AboitizPower) Solar Power Project,44,Solar,2026,15.5202,120.3886
Maragondon-Naic 1 Solar Power Project,100,Solar,2025,14.3318,120.7703
Sapang Balen Solar 2 Power Project,93,Solar,2024,15.231,120.5447
Cabangan Solar Project,44,Solar,2025,15.2058,120.0312
Terra solar farm,250,Solar,2027,14.001,121.001
Gds-Et-Nabatiyeh solar farm,15,Solar,2025,33.3865,35.4603
Vực Mấu solar farm,200,Solar,2024,19.2969,104.8917
Xinjiang Hami Shichengzi 1000 MW solar power plant,100,Solar,2024,43.0359,93.5852
Rajgarh Amazon Hybrid solar farm,150,Solar,2024,22.6513,75.0488
Narita International Airport solar farm,105,Solar,2045,35.7702,140.3843
Sampur Solar Power Project,50,Solar,2025,8.4824,81.2983
Yunnan Weishan Qingshan solar farm,50,Solar,2024,25.3372,100.1393
Jaisalmer Manufacturing (Adani Group) solar farm,250,Solar,2024,26.6899,71.2766
Armenia II Solar Power Plant,35,Solar,2024,15.4585,120.6381
South Power solar farm,15,Solar,2025,33.3126,35.4134
Barmer (Sprng) solar farm,200,Solar,2024,25.7649,71.4014
Santa Rita Solar Power Project,38,Solar,2024,14.805,120.363
Sazagan solar farm,500,Solar,2024,39.6308,66.0581
Qinghai Delingha (China Guangdong Nuclear) Heating/Storage solar complex,200,Solar,2024,37.369,97.151
San Manuel Solar Power Project,56,Solar,2024,16.0644,120.6682
Mesaieed Solar Plant,417,Solar,2024,24.9817,51.5524
Energy Development Oman solar farm,2000,Solar,2030,19.6365,57.6745
Santa Solar Power Project,20,Solar,2025,16.3229,120.3647
Jaisalmer Manufacturing (Adani Group) solar farm,250,Solar,2024,26.9104,70.9104
NLC CPSU Scheme Phase-II solar plant,300,Solar,2024,28.018,73.3033
Bhumibol Dam solar farm,300,Solar,2030,17.2426,98.9717
Ampara solar farm,25,Solar,2030,7.3049,81.6676
Jiangxi Xiangdong District Ash Field solar farm,80,Solar,2024,27.5309,113.7029
Magat Floating Solar Power Project,54,Solar,2026,16.952,121.4896
Zhejiang Wenling Shitang Fishery solar farm,225,Solar,2026,28.2947,121.5797
Pampanga Solar Power Project,60,Solar,2025,15.1102,120.6362
Rajasthan (NHPC) solar plant,300,Solar,2024,26.6345,73.9344
Raipura solar farm,120,Solar,2025,23.9913,90.8732
Inner Mongolia Ordos Yijinhuoluo Wind/Solar/Hydrogen/Ammonia complex,50,Solar,2024,39.2438,109.8254
Batangas solar farm,340,Solar,2024,14.0315,120.7279
Jaisalmer Manufacturing (Adani Group) solar farm,250,Solar,2025,27.4374,71.2642
Limbauan Solar Power Project,20,Solar,2024,16.7306,121.5407
Mohammed Bin Rashid Al Maktoum Solar Park,183,Solar,2024,24.767,55.3679
Jaisalmer Manufacturing (Azure Power) solar farm,125,Solar,2024,26.6899,71.2766
Sagarkandi solar farm,65,Solar,2024,23.9421,89.4206
Guizhou Guanling Yujiazhai solar farm,200,Solar,2024,25.9305,105.4905
Bigeum Residents' Solar Power Plant,200,Solar,2024,34.7679,125.9909
Xinjiang Zepu County Desert control solar farm,800,Solar,2024,38.049,77.123
Soorya Bala Sangramaya Distributed solar farm,800,Solar,2025,7.5555,80.7138
Shandong Dong'e Cairun solar farm,50,Solar,2024,36.3354,116.2468
Talugtug Solar Power Project,100,Solar,2025,15.7136,120.9019
Jaisalmer Manufacturing (Azure Power) solar farm,125,Solar,2024,26.6899,71.2766
Hunan Yueyang Huangshajiezhen Dajincun solar farm,60,Solar,2024,29.0186,113.1309
Sazagan solar farm,500,Solar,2024,39.6308,66.0581
Jaisalmer Manufacturing (Adani Group) solar farm,250,Solar,2025,27.4374,71.2642
Đầm Nước Mặn solar farm,50,Solar,2024,15.1001,108.8001
San Jose del Monte Solar Power Project,64,Solar,2025,14.8147,121.0731
Shandong Shouguang Weifeng II Wind Storage And solar plant,450,Solar,2025,36.8951,118.8096
Xuyên Hà solar farm,130,Solar,2026,12.2071,107.5315
Bhumibol Dam solar farm,320,Solar,2033,17.2426,98.9717
Sta. Barbara 1 Solar Power Project,90,Solar,2024,16.5949,121.9029
Sichuan Ngawa Chali solar farm,250,Solar,2024,32.7388,102.0563
Jaisalmer Manufacturing (Adani Group) solar farm,250,Solar,2024,26.6899,71.2766
Jaisalmer Manufacturing (Azure Power) solar farm,125,Solar,2024,26.6899,71.2766
San Roque Solar Power Project,152,Solar,2027,16.0994,120.6715
Arayat Solar Power Project,48,Solar,2026,15.183,120.7218
Jaisalmer Manufacturing (Adani Group) solar farm,250,Solar,2024,26.6899,71.2766
Valle Andaluz Green Hydrogen solar farm,100,Solar,2026,37.2298,-6.8958
Casas de Don Pedro solar farm,30,Solar,2024,39.0146,-3.3721
Rivera solar farm,"419,9",Solar,2024,37.3835,-6.8368
Elysium agrivoltaic solar farm,50,Solar,2025,52.516,13.4079
Castilla y León Hybrid solar farm,125,Solar,2024,40.6579,-4.6843
Sunnica Energy Farm Solar,250,Solar,2025,52.3247,0.4829
Arad County solar farm,1044,Solar,2025,46.1835,21.3156
Tauragė solar farm,22,Solar,2024,55.1864,22.0717
Laaneranna solar farm,70,Solar,2024,58.5987,23.916
Santiago Do Cacem solar farm,285,Solar,2025,38.7155,-9.1234
Ravenna Floating solar farm,100,Solar,2025,44.4519,12.3071
Sunnica Energy Farm Solar,250,Solar,2025,52.3247,0.4829
Arla solar farm,62,Solar,2024,55.6702,10.3333
Casas de Don Pedro solar farm,"39,2",Solar,2024,39.0146,-3.3721
Nogaiskaya solar farm,60,Solar,2024,44.4515,45.9101
Maple Hill solar farm,92,Solar,2024,58.245,16.0572
Divor Solar,257,Solar,2024,38.393,-7.9652
Utajärvi solar farm,80,Solar,2024,64.7686,26.4326
Morava solar farm,45,Solar,2027,44.2197,21.1651
Wrzosów solar farm,32,Solar,2024,51.1095,23.4225
Srebrzyszcze solar farm,60,Solar,2024,51.1522,23.5387
Isalnita (SE Oltenia) solar farm,75,Solar,2024,44.4491,23.8688
Abagaituiskaya solar farm,120,Solar,2024,49.7099,117.8802
Dos Grados solar farm,126,Solar,2024,39.5679,-8.3807
Rodonas solar farm,"55,7",Solar,2024,40.6444,21.6508
Castilla Y León solar farm,225,Solar,2026,40.6565,-4.7002
El Refugio solar farm,125,Solar,2024,40.1128,-4.2125
Michalitsi solar farm,"219,2",Solar,2024,41.1016,22.7001
Garrenleen solar farm,81,Solar,2025,52.8373,-6.9166
El Casar solar farm,322,Solar,2024,40.7098,-3.4068
Manzanares solar farm,42,Solar,2024,38.9964,-3.3847
Tena solar farm,50,Solar,2024,37.3544,-5.8173
Isalnita (Omv) solar farm,111,Solar,2024,44.4491,23.8688
Mauxhall solar farm,44,Solar,2024,52.5187,-0.7717
Sabinar Hive solar farm,135,Solar,2024,39.5465,-2.0874
Kleszczów solar farm,50,Solar,2024,51.2282,19.2948
Aprilia Solar Plaus solar farm,60,Solar,2024,41.56,12.63
Jeziórko solar farm,53,Solar,2024,49.9927,22.1771
Lužine solar farm,26,Solar,2024,44.2291,15.5766
Amazon Antilia solar farm,40,Solar,2024,41.2244,-3.9954
Viterbo 2 (Enfinity) solar farm,37,Solar,2024,42.4211,12.1005
Kima Solar Farm,50,Solar,2024,43.8869,20.4952
Alhendín solar farm,56,Solar,2024,37.1774,-3.5937
Vakouphi solar farm,"240,8",Solar,2024,40.8772,22.721
Arla solar farm,62,Solar,2024,55.6702,10.3333
Castilla-La Mancha (Cespa) solar farm,"133,3",Solar,2025,39.3543,-3.0654
Medebridge solar farm,70,Solar,2024,51.5106,0.2919
Valladolid (Sonnedix) solar farm,112,Solar,2024,41.6426,-4.734
Castilla-La Mancha (Cespa) solar farm,"133,3",Solar,2025,39.3543,-3.0654
TDC Community solar farm,80,Solar,2025,53.6288,-8.1893
Adolfo Suárez Madrid-Barajas Airport solar farm,120,Solar,2026,40.4984,-3.5676
Castilla y León Hybrid solar farm,60,Solar,2025,40.6579,-4.6843
Twin Rivers solar farm,24,Solar,2024,-35.1145,173.3304
Kimberley Hydrogen Project solar farm,900,Solar,2028,-15.7982,128.7945
Bunnythorpe solar farm,20,Solar,2024,-40.1059,175.6118
Myrtle Creek solar farm,100,Solar,2024,-29.0887,152.9517
Wellington North solar farm,425,Solar,2024,-32.3745,149.2211
Gladstone Abattoir solar farm,78,Solar,2025,-23.8444,151.0466
Pilbara Generation Project solar farm,150,Solar,2024,-24.2071,118.0649
Edenvale Solar Park,204,Solar,2024,-26.9365,150.5845
Australia-Asia Power Link solar farm,1750,Solar,2030,-18.1995,133.3925
Goulburn River solar farm,550,Solar,2026,-32.2821,150.1072
Sunshine Harlin solar farm,500,Solar,2025,-26.9506,152.4154
Culcairn solar farm,350,Solar,2025,-35.6967,146.973
Sunshine Harlin solar farm,500,Solar,2025,-26.9506,152.4154
Burdekin solar farm,140,Solar,2026,-19.7969,146.1855
Red Cliffs solar farm,71,Solar,2026,-34.3621,142.1691
Bluewater solar farm,80,Solar,2024,-19.1407,146.5044
Munna Creek solar farm,120,Solar,2024,-25.8778,152.4357
Forest Glen solar farm,90,Solar,2024,-32.2701,148.4719
Gregadoo Solar,43,Solar,2024,-35.2767,147.7368
Morwell solar farm,70,Solar,2024,-38.2503,146.3977
Merriwa Energy Hub solar farm,550,Solar,2027,-31.1631,146.1302
Derby solar farm,95,Solar,2024,-36.6442,144.0135
Monaro solar farm,100,Solar,2024,-35.9907,149.1064
Prairie solar farm,240,Solar,2027,-36.2098,144.2327
Aperture Green Power wind farm,50,Wind,2024,-1.108396655,36.6446346
Lüderitz Wind Power Plant,50,Wind,2025,-26.4872,15.1013
Ehoala wind farm,12,Wind,2024,-25.0667,46.9635
Al Koudia wind farm,200,Wind,2024,35.8184,-5.4538
Chibia wind farm,48,Wind,2030,-15.5324,13.7108
Trakas wind farm,140,Wind,2024,-33.0813,21.4371
STEG wind farm,75,Wind,2025,33.42837,9.516819
Waaihoek wind farm,140,Wind,2024,-28.5724,30.1447
Dakhla wind farm,40,Wind,2024,24.1797,-13.7668
Mussende wind farm,44,Wind,2036,-10.4941,16.1064
Tarka wind farm,250,Wind,2025,14.9531,5.0184
Mpumalanga Coal Mine wind farm,155,Wind,2025,-26.08554504,30.00301781
Total Eren-Guelmim-Oued Noun wind farm,5000,Wind,2027,28.9884,-10.0508
Assela wind farm,150,Wind,2025,8.1726,39.2017
Chenenni wind farm,75,Wind,2027,32.914418,10.277227
San Kraal wind farm,140,Wind,2024,-29.7853,18.4065
Phezukomoya wind farm,140,Wind,2024,-31.2525,24.9523
STEG wind farm,75,Wind,2025,33.42837,9.516819
Morocco-UK wind farm,3500,Wind,2030,28.5274,-10.0316
Calenga wind farm,84,Wind,2024,-12.954,15.4423
STEG wind farm,75,Wind,2025,33.42837,9.516819
Miombo Hewani wind farm,200,Wind,2025,-8.631,34.8109
Empire wind farm,816,Wind,2026,40.3608,-73.4662
Solano Wind Project,92,Wind,2024,38.0908,-121.828
Benjamins Mill wind farm,150,Wind,2024,44.891331,-64.269366
Goose Creek wind farm,300,Wind,2024,40.1866,-88.5608
Kitty Hawk wind farm,800,Wind,2026,36.406,-75.3222
Chokecherry And Sierra Madre Wind Energy Project,750,Wind,2028,41.6831,-107.2001
Sand Hill wind farm,80,Wind,2025,37.7697,-121.596
Pedro Avelino wind farm,102,Wind,2024,-5.5219,-36.385
Vento Tupi Offshore wind farm,999,Wind,2028,-2.7333,-41.5838
Camocim Offshore wind farm,1200,Wind,2028,-2.8135,-40.9688
Higgins Mountain wind farm,100,Wind,2025,45.550851,-63.577022
Toabré wind farm,22,Wind,2024,8.6286,-80.3501
Livingston wind farm,255,Wind,2025,37.6632,-88.9841
Yaguaro wind farm,90,Wind,2026,10.87259388,-74.97512232
Vientos De Bolívar wind farm,150,Wind,2025,10.6524,-75.2707
Poplar Camp wind farm,72,Wind,2025,36.8366,-80.8752
Presa Nueva wind farm,"201,4",Wind,2025,25.7006,-99.239
Forty Mile wind farm,120,Wind,2025,49.6431,-111.3485
EDF Serra Do Seridó wind farm,44,Wind,2024,-6.9613,-36.7859
Crosby County wind farm,150,Wind,2025,33.7137,-101.434
Wagon Wheel Wind,600,Wind,2025,36.3283,-97.8216
Maravilha Offshore wind farm,3000,Wind,2027,-21.7826,-40.6696
Badger wind farm,252,Wind,2025,46.2169,-99.5983
Juramento wind farm,186,Wind,2024,-18.4829,-44.1726
Cefiro wind farm (Peru),366,Wind,2026,-14.18263979,-75.71298296
Pedra Grande Offshore wind farm,624,Wind,2029,-5.0493,-35.6549
Ocean (Ørsted) wind farm,1215,Wind,2024,39.1214,-74.2462
Barlovento 3 offshore wind farm,50,Wind,2034,11.87869228,-72.3663717
Atlantic Shores South Wind Project,1510,Wind,2027,39.0954,-74.4387
Highland Park Project wind farm,181,Wind,2024,39.7353,-105.649
Prairie Violet Wind,135,Wind,2026,41.037,-89.227
Pampa Yolanda Hybrid wind farm,388,Wind,2025,-25.2602,-69.7004
Forged Ethic Wind Energy Project,323,Wind,2024,35.6269,-111.7823
Barlovento 4 offshore wind farm,50,Wind,2034,11.87869228,-72.3663717
Águas Claras Offshore wind farm,3000,Wind,2027,-29.7797,-49.9085
Sento Se wind farm,425,Wind,2024,-11.6126,-40.657
Wedgeport wind farm,80,Wind,2025,43.72764,-66.014932
Cherrepe wind farm,"142,5",Wind,2025,-7.001970555,-79.69982323
Heritage Prairie Wind,500,Wind,2025,40.9474,-88.3096
General Levalle wind farm,155,Wind,2024,-34.00854899,-63.92335037
Carpenter wind farm,198,Wind,2025,40.7592,-87.1653
Chokecherry And Sierra Madre Wind Energy Project,750,Wind,2029,41.6831,-107.2001
Red Rock wind farm,200,Wind,2025,49.69942,-110.860811
Penonomé wind farm,"51,8",Wind,2025,8.4606,-80.3584
Moscow Wind,59,Wind,2024,45.1186,-69.8721
Punta Lomitas wind farm,"192,2",Wind,2024,-14.6517,-75.9008
Vientos de Mochica wind farm,220,Wind,2026,-6.710901981,-79.91170275
Caravelí wind farm,"219,6",Wind,2026,-15.3965,-74.937
Colibrí wind farm,92,Wind,2024,5.4969,-73.6253
Barranquilla offshore wind farm,350,Wind,2026,11.06439001,-74.86658188
Wakuaipa 200 Mw wind farm,200,Wind,2024,11.9917,-71.6769
Agreste Potiguar wind farm,36,Wind,2024,-5.3842,-36.1097
Fox Meadows wind farm,165,Wind,2026,52.565176,-110.460769
Rhodena wind farm,100,Wind,2025,45.779743,-61.42461
Two Rivers Wind Facility,280,Wind,2024,44.2806,-87.5369
Ellershouse wind farm,66,Wind,2025,44.903583,-64.051566
Huascar wind farm,300,Wind,2025,-5.1801,-80.6563
Martinsdale wind farm,80,Wind,2024,46.5045,-110.2201
Bull Run Wind Energy Center,449,Wind,2027,44.9124,-73.8146
Cerro Chocan wind farm,"211,2",Wind,2024,-5.2021,-80.9549
Community Offshore Wind,3000,Wind,2030,39.6731,-73.5071
Vilas Wind Power Complex,187,Wind,2024,-5.1708,-37.0394
Cone Renewable Energy Project wind farm,150,Wind,2025,33.8093,-101.342
MarWin wind farm,300,Wind,2025,38.3515,-74.3705
Norteño wind farm,"131,1",Wind,2025,-7.001970555,-79.69982323
Bayóvar wind farm,250,Wind,2026,-5.5635,-80.819
SouthCoast Wind,804,Wind,2028,40.7547,-70.4216
Smoky River wind farm,160,Wind,2026,55.89911,-117.051491
North Slope wind farm,50,Wind,2026,44.8919,-73.9425
Coxilha Negra wind farm,"96,6",Wind,2024,-30.82125791,-55.53104908
Rolling Upland wind farm,71,Wind,2028,42.5246,-75.2774
Ventos Do Atlântico Offshore wind farm,5009,Wind,2029,-22.1847,-40.9432
Cascadia Offshore Wind Project,2000,Wind,2029,46.6972,-124.4351
Ta'Teh Topah wind farm,450,Wind,2024,45.0826,-100.891
Chickasaw wind farm,200,Wind,2024,43.2752,-92.3262
King Pine wind farm,1000,Wind,2029,46.8605,-68.0139
El Ahumado wind farm,50,Wind,2024,11.0614,-73.0514
Lava Ridge wind farm,1000,Wind,2024,42.7734,-114.118
Loma Verde wind farm,"173,6",Wind,2025,-41.2189,-73.1855
Baron Winds Farm,113,Wind,2024,42.4399,-77.5298
Aroeira wind farm,47,Wind,2024,-12.5779,-38.0049
Coxilha Negra wind farm,"100,8",Wind,2024,-30.82125791,-55.53104908
Motosira wind farm,300,Wind,2026,11.71522331,-72.26364088
Sopros do Ceará Offshore wind farm,3000,Wind,2029,-2.9066,-38.9909
Jawbone Wind Project,80,Wind,2024,46.5081,-109.728
Flat Ridge wind farm,135,Wind,2025,37.3879,-98.0303
Hecate Strait Offshore wind farm,400,Wind,2026,53.1832,-130.831
Wayra wind farm (Chile),416,Wind,2024,-25.4067,-70.4798
Canisteo wind farm,291,Wind,2026,42.1438,-77.5969
Dividivi wind farm,150,Wind,2024,11.9917,-71.6769
Chilocco wind farm,169,Wind,2024,36.9786,-97.0806
Apotolorru wind farm,75,Wind,2025,11.9917,-71.6769
Beaver Creek (Caithness) Wind Farms,60,Wind,2025,45.9051,-109.4121
High Point wind farm,212,Wind,2024,42.3914,-89.8651
Sopros de Rio de Janeiro Offshore wind farm,3000,Wind,2029,-23.0694,-43.3939
Babilônia Centro wind farm,554,Wind,2025,-10.96954948,-41.22836995
Asa Branca Offshore wind farm,720,Wind,2025,-2.985,-39.6479
Water Valley Wind Energy,180,Wind,2026,31.6112,-100.813
Bull Trail wind farm,270,Wind,2024,49.8446,-110.2801
Kappa wind farm,500,Wind,2024,11.9917,-71.6769
Ponderosa Wind Energy Center,100,Wind,2024,36.589452,-100.8037
Guajira wind farm,"414,4",Wind,2024,11.3804,-72.2256
Rock Creek Wind Project,590,Wind,2024,41.5967,-105.9325
Delta wind farm,185,Wind,2024,34.4692,-90.3927
Votu Winds Offshore wind farm,480,Wind,2029,-21.2018,-40.6209
Buffalo Plains wind farm,494,Wind,2024,50.3646,-112.7201
Bekevar wind farm,200,Wind,2024,50.0079,-102.5657
Bison Meadows Wind And Storage Project,200,Wind,2026,41.7142,-89.3287
New England Aqua Ventus wind farm,12,Wind,2024,43.9168,-69.1266
Rosa wind farm,400,Wind,2026,-5.982484849,-79.75142962
Jangada Offshore wind farm,3000,Wind,2029,-3.0154,-39.2664
Guangdong Shantou Zhongpeng Area 1 Offshore wind farm,1000,Wind,2025,23.2765,117.3051
Okdong Wind Power Plant,53,Wind,2025,37.8218,128.2202
Shan wind farm,950,Wind,2031,21.86605347,98.03
Yeosu Dado Offshore Wind Power Plant,376,Wind,2031,34.491,127.607
Goheung Sisan Offshore Wind Power Plant,352,Wind,2029,34.3701,127.3194
Abukuma wind power plant,37,Wind,2025,38.1016,140.8324
BP Oman-Dhofar wind farm,1750,Wind,2030,19.636943,57.68
Yokjido (Vena Energy) wind farm,384,Wind,2028,34.585,128.2468
Noshiro-Yamamoto Regional wind farm,"96,6",Wind,2024,39.7643,140.0849
Sulawesi Tersebar wind farm,70,Wind,2026,-1.8684,120.48
Fukushima Demo floating wind farm,15,Wind,2027,37.31939242,141.0426749
Asia Đắk Song 1 wind farm,50,Wind,2024,12.28941244,107.62
Phu Cuong Soc Trang Offshore wind farm,200,Wind,2026,9.2501,105.92
Kellia wind farm,16,Wind,2024,34.9756,33.6222
Yeosu Samsan wind farm,320,Wind,2027,34.2367,127.3975
Guangdong Zhanjiang Xuwen Offshore wind farm,300,Wind,2024,20.571411,110.55527
Gimcheon wind power plant,25,Wind,2025,36.2103,128.097
Jeongseon Sindong Wind Power,23,Wind,2027,37.252,128.648
Thăng Long Offshore wind farm,600,Wind,2026,10.68664513,108.02
Donghae White Heron wind farm,495,Wind,2025,35.3358,130.1771
Karaman wind farm,"45,6",Wind,2024,36.9773,33.5546
Aphae wind farm,80,Wind,2027,34.912,125.902
G8 offshore wind farm,500,Wind,2026,34.0422,125.6067
Real Ace Wind Power Project,175,Wind,2029,14.2435,121.7
Hai Long Offshore wind farm,512,Wind,2026,24.0527755,119.6414212
Khizi 3 wind farm,"162,5",Wind,2025,40.7094,49.3336
Chujin Offshore Wind Project,500,Wind,2027,33.942,126.204
Hongcheon Yuljeon Wind Power Plant,68,Wind,2025,37.818,128.402
Sinaneo offshore wind power plant,99,Wind,2025,35.124,126.1608
Duqm II wind farm,200,Wind,2027,19.4362,57.15
Hainan Wanning Offshore Floating wind farm,800,Wind,2027,18.739201,110.578852
Caparispisan wind farm,70,Wind,2024,18.5602,120.79
Fujian Ningde Xiapu Offshore wind farm,400,Wind,2026,26.8301,120.2797
Wandogeumil Offshore Wind Power Plant,400,Wind,2025,34.302,127.0803
Takko wind farm,76,Wind,2027,39.7643,140.0849
Tondehal wind farm,322,Wind,2024,15.6368,76.9808
Guangdong Nan'ao Lemen 1 Offshore wind farm,352,Wind,2024,23.2755,117.049
Hainan CZ7 Demonstration Offshore wind farm,1500,Wind,2026,19.0001,108.3667
Cheongsapo wind farm,40,Wind,2025,35.1059,129.2464
Gunghang Offshore Wind Power,240,Wind,2027,34.5955,126.2139
Jiangsu Dafeng H17 Offshore wind farm,200,Wind,2024,33.212,120.7683
Haeuli Floating Offshore Wind Power,510,Wind,2028,35.2111,130.0091
Inner Mongolia Yijinhuoluo Banner Nalintaohe wind farm,100,Wind,2025,39.2409,109.828
Pyeongchang Soksa Wind Power Plant,40,Wind,2025,37.6352,128.5684
PNE Binh Dinh offshore wind farm,700,Wind,2026,14.024,109.43
Formosa 3 offshore wind farm,600,Wind,2026,24.05807101,120.0003101
Nabas wind farm,14,Wind,2025,11.87964295,121.99
Hunan Daoxian Huangmaoling wind farm,100,Wind,2024,25.3135,111.7256
Incheon offshore wind farm,1600,Wind,2027,37.3603,126.1775
Heilongjiang Nenjiang Duobaoshan wind farm,160,Wind,2024,49.1748,125.2301
Aguilar Wind Power Project,99,Wind,2027,15.84471389,120.19
Sinan (KOEN) wind farm,300,Wind,2027,34.7908,125.712
Guangdong Yangjiang Qingzhou Vii Offshore wind farm,1000,Wind,2024,20.8155,111.4957
Pohang Bihak Wind Power Plant,90,Wind,2026,36.158,129.183
Sơn La wind farm,128,Wind,2025,21.3692,103.88
Kungrad wind farm,500,Wind,2027,43.72268828,57.05991015
Bình Định Province Offshore wind farm,600,Wind,2027,14.024,109.3
Gunwi wind farm,75,Wind,2024,36.1679,128.648
Jalan Bani Bu Ali IPP wind farm,100,Wind,2026,22.011612,59.35
Ubon Ratchatani I wind farm,87,Wind,2026,15.08905362,105.03
Bash wind farm,500,Wind,2025,40.6577,64.7129
Karnataka (Green Infra) wind farm,180,Wind,2024,13.7899,75.7457
Edirne wind farm,295,Wind,2026,40.6849,26.3149
Yeongdeok No. 1 Wind Power,77,Wind,2026,36.3132,129.3351
Hai Phong City Offshore wind farm,1300,Wind,2037,20.3808,107.56
Pooneryn wind farm,100,Wind,2025,9.563091,80.1246
Kawanishi wind farm,64,Wind,2024,45.103,141.7779
Pyeongchang Geomun Wind Power Plant,40,Wind,2026,37.6365,128.5144
Jetisu wind farm,1000,Wind,2027,45.55166043,78.92794414
Inner Mongolia Tuquan coal power fliexibility modification wind farm,445,Wind,2024,45.39702955,121.5487701
Oman Green Energy wind farm,5000,Wind,2032,19.933945,57.12
Donghae White Heron wind farm,510,Wind,2027,35.3358,130.1771
Taipower Offshore wind farm,295,Wind,2025,24.10245848,120.2020308
Shagaya Wind Project,50,Wind,2026,29.2285,47.06
Hai Long Offshore wind farm,300,Wind,2025,24.03348402,119.7085217
Lamma Offshore wind farm,150,Wind,2027,22.22827979,114.1233089
Shiroishi Kosugo wind farm,38,Wind,2026,38.2681,140.8796
Chongqing Qianjiang Qilin wind farm,"49,5",Wind,2024,29.47880019,108.8148681
Sakata North Port (Nearshore) Offshore wind farm,28,Wind,2026,38.9613,139.8199
Pagudpu wind farm,80,Wind,2025,18.60232512,120.83
Ninh Thuận 1 offshore wind farm,1000,Wind,2033,10.76988087,108.16
Akita Port (JWD) Offshore wind farm,722,Wind,2026,40.1438,139.9369
Hanumanthappa wind farm,25,Wind,2024,16.8331,75.6975
Cần Giờ offshore wind farm,3000,Wind,2036,10.34482931,106.93
Yeongil Wind Power Plant,90,Wind,2026,35.9684,129.3713
Hunan Daoxian Qiaotou wind farm,50,Wind,2024,25.7445,111.4384
Inner Mongolia Dongsheng Bojiang Haizideng wind farm,600,Wind,2025,39.8559,109.3888
Jiangsu Sheyang Southern Area H5 Offshore wind farm,400,Wind,2024,33.5901,121.2103
Karnataka (Torrent) wind farm,300,Wind,2024,13.7899,75.7457
Yuchi wind farm,72,Wind,2025,45.2509,141.6336
San Isidro Wind Power Project,200,Wind,2027,12.3522,124.38
Gangneung Anin wind farm,40,Wind,2025,37.6616,128.9232
Zhong Neng wind farm,300,Wind,2024,23.9671,120.217
Maenggoldo Offshore wind farm,300,Wind,2026,34.4343,125.8089
Elmacık wind farm,70,Wind,2024,41.9729,27.1723
Monsoon wind farm,1000,Wind,2025,15.39339599,107.23
Oman Green Energy wind farm,10000,Wind,2038,19.933945,57.12
Wandogeumil Offshore Wind Power Plant,200,Wind,2025,34.302,127.0803
Chu Tin Offshore wind farm,100,Wind,2026,24.87538694,120.7190737
Guangdong Guangning Zhouzai wind farm,"99,8",Wind,2024,23.596,112.249
Balkaya wind farm,260,Wind,2026,41.6476,27.8958
Zhejiang Taizhou 1 Offshore wind farm,300,Wind,2024,28.8667,121.8667
Guangdong Lianshan Taibao wind farm,50,Wind,2024,24.694,112.187
Yurihonjo (Mitsubishi) Offshore wind farm,910,Wind,2030,39.4328,139.9729
Aizu-Wakamatsu wind farm,50,Wind,2030,37.461,139.9916
La Gàn offshore wind farm,1750,Wind,2026,10.9227,108.43
Hai Long Offshore wind farm,232,Wind,2025,24.03348402,119.7085217
Mirny wind farm,800,Wind,2026,44.6713,73.8598
Samcheok Gapoong Wind Power,50,Wind,2026,37.105,129.166
Heilongjiang Boli wind power hydrogen production wind farm,200,Wind,2024,45.7536,130.589
V4 Trà Vinh offshore wind farm,2000,Wind,2030,9.563362277,106.61
Ninh Thuận 1 offshore wind farm,1000,Wind,2031,10.76988087,108.16
Sekong wind farm,315,Wind,2025,15.35206463,106.71
Haeje wind power plant,22,Wind,2025,35.112,126.288
Kalayaan 2 Wind Power Project,100,Wind,2027,14.6509,121.04
Jiangsu Dafeng H8-1 Offshore wind farm,200,Wind,2024,33.212,120.7683
Donghae Gray Whale wind farm,495,Wind,2027,35.2193,129.9978
Sharco Duo Offshore wind farm,1800,Wind,2028,54.9141,16.566
Fyrskeppet wind farm,2800,Wind,2029,61.129,18.6048
Skåne Sea wind farm,1500,Wind,2029,55.0895,13.6532
Heilenbach wind farm,29,Wind,2026,50.0691,6.4698
Plunge wind farm,218,Wind,2026,55.947,21.8237
Hesselø Offshore wind farm,1000,Wind,2029,56.4176,11.9254
Saint Médard d'Aunis wind farm,12,Wind,2025,46.1642,-0.967
Siikajoki wind farm,"235,6",Wind,2024,64.6568,25.0948
Korpilevonmäki wind farm,43,Wind,2025,61.0557,22.3404
Arconsat wind farm,10,Wind,2028,45.9006,3.7126
Iberdrola Floating Offshore wind farm,300,Wind,2026,27.6501,-15.5601
Dogger Bank wind farm,1320,Wind,2026,55.9673,1.6679
Ovelgönne-Moorseite wind farm,17,Wind,2024,53.2775,8.296
Schieder wind farm,11,Wind,2024,51.9003,9.1433
Caledonia offshore wind farm,2000,Wind,2030,58.0341,-2.8372
Pestera wind farm,393,Wind,2025,44.1868,28.1304
Baltic Central offshore wind farm,4000,Wind,2032,55.9701,15.4618
Moray West wind farm,882,Wind,2024,58.0699,-3.3131
Luxem wind farm,34,Wind,2024,50.3133,7.0817
Nordsøen 1 wind farm,5000,Wind,2030,56.4542,8.0777
Siipyy wind farm,480,Wind,2030,62.1058,21.1487
Dogger Bank wind farm,1200,Wind,2026,55.9673,1.6679
Vetrogon wind farm,450,Wind,2028,45.5942,19.9237
Kroppenstedt wind farm,17,Wind,2025,51.9617,11.3379
Kölvallen wind farm,300,Wind,2025,61.9428,15.1607
Stora Middelgrund wind farm,864,Wind,2026,56.6124,12.0995
Kultakalliot wind farm,80,Wind,2027,61.8589,21.4942
Kriegers Flak wind farm,640,Wind,2027,55.0756,13.0976
Burladingen wind farm,56,Wind,2025,48.2788,9.1271
Lumivaara 2 wind farm,53,Wind,2025,64.6829,28.4841
Dogger Bank wind farm,1200,Wind,2024,55.9673,1.6679
Clogher Head wind farm,500,Wind,2027,53.8201,-6.0401
Hoßkirch wind farm,40,Wind,2024,47.9608,9.4264
Geldern wind farm,11,Wind,2024,51.521,6.2191
Baltica II Offshore wind farm,1489,Wind,2026,55.07,17.1001
Matkussaari wind farm,"148,5",Wind,2025,62.6351,22.0911
Pointe des Poulains de Belle-Île floating wind farm,250,Wind,2030,47.3946,-3.2467
Lesse wind farm,45,Wind,2024,52.1743,10.2638
Kattiharju wind farm,80,Wind,2024,62.9059,22.2542
Proyecto Hibrído Castilla Y León wind farm,252,Wind,2024,42.5892,-5.5633
Kattegat Offshore wind farm,260,Wind,2032,56.8294,12.3395
Perioche Sea Offshore wind farm,216,Wind,2025,40.8157,25.8078
Stenkalles Grund wind farm,100,Wind,2025,59.2101,13.2815
Haute Voie wind farm,33,Wind,2024,48.7715,4.4983
Baltica I Offshore wind farm,896,Wind,2030,55.56,17.53
Baltic Eagle wind farm,476,Wind,2024,54.8506,13.8014
Länge wind farm,34,Wind,2024,47.8847,8.6034
Rézentières extension wind farm,15,Wind,2027,45.1434,3.1068
Wysoka (Ingka) wind farm,62,Wind,2024,53.1943,17.1668
Bad Arolsen Bühle wind farm,24,Wind,2024,51.2975,9.1069
La Lucoise wind farm,"28,8",Wind,2027,44.6489,3.8908
Baltic Sea wind farm,700,Wind,2028,55.6378,20.4929
Ocean Winds Floating (Ocean Winds/Disa) wind farm,144,Wind,2025,27.8128,-15.3854
North Celtic Sea wind farm,800,Wind,2027,52.0001,-7.2101
Bahren West wind farm,50,Wind,2024,51.6388,14.7329
Gortyrahilly wind farm,60,Wind,2024,51.9015,-9.2209
Ophithousa Podikousa Levitha And Kinaros Islands wind farm,282,Wind,2025,36.908,26.1669
Nateln wind farm,33,Wind,2026,52.97,10.7383
Nordsee 2 wind farm,433,Wind,2027,53.7917,6.9576
Celtic Sea wind farm,2100,Wind,2030,51.9701,-6.9901
Kokkoneva (Suomen) wind farm,400,Wind,2027,63.2681,24.3576
Pâturelle wind farm,"17,1",Wind,2028,49.799,2.8593
Dolphyn ERM full scale wind farm,3000,Wind,2033,51.2018,-6.2691
Benndorf wind farm,19,Wind,2025,51.5705,11.4551
Les Vents De Nord-Sarthe wind farm,11,Wind,2026,48.3031,-0.2502
Silesia wind farm,137,Wind,2024,50.6816,17.8162
Doordewind offshore wind farm,2000,Wind,2031,54.2472,4.1128
Västervik wind farm,"55,8",Wind,2024,62.0729,21.4523
Lackareagh wind farm,50,Wind,2026,52.8203,-8.5608
Sonnavindar wind farm,1200,Wind,2027,57.1752,6.2038
Boraja Wind Park,45,Wind,2024,43.5124,16.8178
Fjällberg wind farm,90,Wind,2025,64.1667,17.3333
Stöppelwind wind farm,19,Wind,2024,51.1342,8.1214
Petite Montagne 2 wind farm,18,Wind,2024,48.8475,5.2748
Crystal Rig wind farm,48,Wind,2025,55.9031,-2.5278
Inkoo-Raaseporin wind farm,330,Wind,2030,59.8558,23.9584
Waldow wind farm,17,Wind,2024,51.9935,13.7222
Eoljorat Sud wind farm,28,Wind,2026,46.6059,6.7408
Versicherungskammer Group wind farm,"10,5",Wind,2026,53.1158,-9.2717
Mustalamminmaki (Amazon) wind farm,"23,6",Wind,2024,62.9283,24.9328
Hanstedt II wind farm,40,Wind,2028,52.9467,10.6537
Baltic Offshore Delta wind farm,5000,Wind,2032,59.2854,20.0577
Kellystown wind farm,50,Wind,2027,53.7109,-6.3443
Reinhardswald wind farm,101,Wind,2024,51.5281,9.5382
Fromentaux wind farm,12,Wind,2025,45.6159,1.1972
Shetland floating offshore wind farm,10000,Wind,2030,60.9241,-2.2286
Barjas wind farm,121,Wind,2025,42.8314,-7.6237
Fliederberg wind farm,13,Wind,2024,52.3777,11.7289
North Irish Sea wind farm,530,Wind,2028,53.6401,-5.8901
Flagship Demonstrator wind farm,10,Wind,2025,27.9929,-15.357
Büren-Haabusch wind farm,12,Wind,2024,51.9732,7.0454
Wellamo offshore wind farm,1750,Wind,2030,61.4111,21.4285
Kamenica wind farm,35,Wind,2024,42.4545,21.5042
Cap Estève wind farm,12,Wind,2024,43.6753,2.949
IJmuiden Ver wind farm,1000,Wind,2029,53.2609,4.1295
Himmelreich (Marsberg) wind farm,29,Wind,2024,51.5015,8.8544
Hiiumaa Offshore wind farm,900,Wind,2029,59.1482,22.524
Klein Süstedt wind farm,22,Wind,2024,52.9438,10.4544
Görrisau wind farm,17,Wind,2024,54.5724,9.3749
Kennoxhead wind farm,112,Wind,2024,55.5066,-3.9577
Wallsbüll wind farm,23,Wind,2025,54.7973,9.2501
Noordhinder Noord wind farm,1160,Wind,2026,51.5954,2.8056
Facaeni II wind farm,226,Wind,2025,44.558,27.8892
Bel Coster wind farm,27,Wind,2025,46.7641,6.6419
Pajukoski II wind farm,180,Wind,2024,63.9862,24.5886
Bergeheia wind farm,300,Wind,2024,58.6113,6.6292
Kinsale Offshore wind farm,1000,Wind,2030,51.7166,-8.2778
Bauabschnitt wind farm,28,Wind,2024,51.1509,11.9735
Kurzeme wind farm,1000,Wind,2030,57.1221,20.5247
Korchenbroich wind farm,18,Wind,2024,51.1493,6.6164
Spiorad na Mara offshore wind farm,840,Wind,2031,59.1559,-7.7598
Ostprignitz wind farm,50,Wind,2024,53.0977,12.5116
Noordhinder Zuid wind farm,1160,Wind,2026,51.5901,2.7975
Eoljorat North wind farm,14,Wind,2026,46.6357,6.5321
Heimbach-Vlatten wind farm,23,Wind,2024,50.6418,6.5675
Querstedt wind farm,17,Wind,2024,52.5936,11.6432
Trollvind Offshore wind farm,1000,Wind,2027,60.3473,4.3456
Lünne wind farm,33,Wind,2024,52.4116,7.461
Hofgeismar wind farm,10,Wind,2024,51.5132,9.3503
Vetrozelena wind farm,300,Wind,2025,44.8861,20.7594
Itsaraz wind farm,"52,8",Wind,2027,43.1823,-2.1716
Montreuil en Caux wind farm,12,Wind,2024,49.6955,1.1965
Iversacker wind farm,14,Wind,2024,54.793,9.1101
Toholampi-Lestijärvi wind farm,123,Wind,2027,63.6848,24.4871
Aberarder wind farm,50,Wind,2024,57.2569,-4.2422
Flinten wind farm,22,Wind,2024,52.8518,10.7417
La Herrada wind farm,52,Wind,2024,38.9935,-1.8599
Opor Wind Park,30,Wind,2024,43.5121,16.8444
Botafogo Offshore Floating wind farm,990,Wind,2030,40.1457,-8.8715
Gretas Klackar wind farm,1800,Wind,2028,61.5259,17.697
Les Grands Bois wind farm,36,Wind,2028,47.4167,6.7682
Courseulles-Sur-Mer wind farm,448,Wind,2025,49.4694,-0.5134
IJmuiden Ver wind farm,1000,Wind,2028,53.2609,4.1295
Fairybank wind farm,1160,Wind,2026,51.5886,2.7955
Ölme wind farm,81,Wind,2025,59.4189,14.056
Kennedy Energy Park wind farm,900,Wind,2029,-25.486,152.0891
South Taranaki Bight offshore wind farm,900,Wind,2030,-39.5434,173.6808
Ryan Corner wind farm,218,Wind,2032,-38.2708,142.1435
Delburn wind farm,200,Wind,2027,-38.3007,146.2677
Uungula wind farm,414,Wind,2029,-32.5825,149.1772
Golden Plains wind farm (Australia),756,Wind,2026,-37.97286799,143.7830196
Rye Park wind farm,327,Wind,2024,-34.4966,148.8712
Robbins Island wind farm,560,Wind,2036,-40.692166,144.945305
Goyder South wind farm,400,Wind,2027,-33.7442,138.9809
Mount James wind farm,1000,Wind,2038,-19.964,144.2033
Clarke Creek wind farm,450,Wind,2025,-22.417,149.109
Central Queensland Power Project wind farm,1000,Wind,2038,-27.4714,153.0294
Macintyre wind farm,923,Wind,2024,-28.2163,152.0327
Archer Point wind farm,120,Wind,2035,-15.57681816,145.3090999
Eden wind farm,1800,Wind,2032,-37.3352,150.3932
Lincoln Gap wind farm,256,Wind,2024,-32.588,137.5552
Banana Range wind farm,230,Wind,2026,-24.4368,150.329
Desailly Renewable Energy Park wind farm,300,Wind,2035,-16.3741,145.0626
Kondinin wind farm,121,Wind,2026,-32.37982855,118.2584715
Clarke Creek wind farm,350,Wind,2037,-22.417,149.109
North East wind farm,500,Wind,2026,-40.86128302,148.0119968
Bushy Creek wind farm,150,Wind,2025,-37.8091,142.5805
Dinawan Energy Hub wind farm,1250,Wind,2025,-34.9628,145.5793
Illawarra wind farm,2000,Wind,2031,-34.42615596,151.0556219
Mid West Wind & Solar Project,364,Wind,2033,-29.5386,114.599
Specimen Hill wind farm,336,Wind,2038,-24.245,150.7878
Australis VIC Offshore wind farm,495,Wind,2027,-38.34605527,141.3434389
Low Head wind farm,42,Wind,2024,-41.0544,146.7869
Waddi wind farm,108,Wind,2034,-30.5778,115.5156
Hellyer wind farm,300,Wind,2036,-41.311,145.696
Dimoli hydroelectric plant,180,Hydro,2025,3.9776,
High Grand Falls hydroelectric plant,1000,Hydro,2024,-0.4306,
Louga 2 hydroelectric plant,120,Hydro,2027,5.0749,
Kandadji hydroelectric plant,130,Hydro,2026,14.6758,
Tabarka hydroelectric plant,400,Hydro,2027,34.2217,
Nachtigal hydroelectric plant,420,Hydro,2024,4.3541,
Chollet hydroelectric plant,600,Hydro,2025,1.9508,
Lewis Ridge hydroelectric plant,216,Hydro,2030,36.7701,
Butantan hydroelectric plant,460,Hydro,2029,5.0618,
Bem Querer hydroelectric plant,650,Hydro,2031,1.8778,
Ercilândia hydroelectric plant,97,Hydro,2028,-24.2053,
Amalia Falls hydroelectric plant,165,Hydro,2025,5.3445,
San Gabán 3 hydroelectric plant,212,Hydro,2024,-15.497,
Chontal hydroelectric plant,150,Hydro,2026,0.2168,
Banks Lake North Dam hydroelectric plant,500,Hydro,2028,47.9373,
Castanheira hydroelectric plant,140,Hydro,2028,-11.0775,
Goldendale Energy Storage hydroelectric plant,1200,Hydro,2028,45.7488,
Guayacanes hydroelectric plant,240,Hydro,2028,6.2273,
Cañaveral hydroelectric plant,80,Hydro,2025,5.7119,
Lluclla hydroelectric plant,288,Hydro,2025,-16.0156,
Chicoasén 2 hydroelectric plant,240,Hydro,2026,16.9853,
Patuca 2A hydroelectric plant,150,Hydro,2026,14.8211,
Budhi Gandaki Prok Khola hydroelectric plant,420,Hydro,2027,28.5675,
Jiaohe hydroelectric plant,1200,Hydro,2029,43.5786,
Pankou hydroelectric plant,300,Hydro,2026,32.2326,
Nam Hka hydroelectric plant,210,Hydro,2025,21.7338,
Simonggo 2 hydroelectric plant,90,Hydro,2029,-2.6767,
Mantong hydroelectric plant,225,Hydro,2025,22.9747,
New Ganderbal hydroelectric plant,93,Hydro,2025,34.2889,
Ziyunshang hydroelectric plant,1400,Hydro,2029,30.132,
Yangqu hydroelectric plant,1200,Hydro,2024,35.5095,
Dudhkoshi 5 hydroelectric plant,110,Hydro,2027,27.4961,
Bheri 2 hydroelectric plant,256,Hydro,2027,28.7792,
Talong Londa hydroelectric plant,225,Hydro,2025,27.5578,
Kholongchu hydroelectric plant,600,Hydro,2025,27.4064,
Middle Yeywa hydroelectric plant,700,Hydro,2025,21.9602,
Hosihe hydroelectric plant,1200,Hydro,2028,34.7581,
Nam Pawn Upper hydroelectric plant,150,Hydro,2027,20.0621,
Khudafarin (Khoda Afarin) hydroelectric plant,102,Hydro,2024,39.1595,
Jurong hydroelectric plant,1350,Hydro,2025,32.0535,
Motuo hydroelectric plant,60000,Hydro,2045,29.1808,
Xiamen hydroelectric plant,1400,Hydro,2024,24.7774,
Upper Trishuli 2 hydroelectric plant,102,Hydro,2025,29.3081,
Mohmand hydroelectric plant,800,Hydro,2025,34.5342,
Lower Arun hydroelectric plant,679,Hydro,2029,27.3642,
Mugu Karnali Storage hydroelectric plant,1902,Hydro,2031,29.5424,
Liziwan hydroelectric plant,1400,Hydro,2030,29.8074,
Jinchuan hydroelectric plant,860,Hydro,2025,31.5901,
Buywa Upper hydroelectric plant,150,Hydro,2027,20.4481,
Fukang hydroelectric plant,1200,Hydro,2024,44.0196,
Niushoushan hydroelectric plant,1000,Hydro,2028,37.8924,
Bendungan Merangin hydroelectric plant,107,Hydro,2028,-2.1451,
Zhentouba Stage 2 hydroelectric plant,300,Hydro,2026,29.2295,
Attunli hydroelectric plant,680,Hydro,2029,28.6669,
Nam Tabak 2 hydroelectric plant,144,Hydro,2027,25.1198,
Langjiang hydroelectric plant,1200,Hydro,2025,23.1358,
Eğirdir Golunde hydroelectric plant,1000,Hydro,2026,37.872,
Pulangi 5 hydroelectric plant,250,Hydro,2031,7.4935,
Pskem hydroelectric plant,400,Hydro,2026,41.8246,
Rajdhani hydroelectric plant,132,Hydro,2029,33.8441,
Teesta-VI hydroelectric plant,500,Hydro,2024,27.126,
Luanping hydroelectric plant,1200,Hydro,2029,40.9394,
Luhri-I hydroelectric plant,210,Hydro,2026,32.1978,
Azad Pattan hydroelectric plant,701,Hydro,2027,33.7764,
Zhen’an hydroelectric plant,1400,Hydro,2024,33.5126,
Etalin hydroelectric plant,3097,Hydro,2029,28.6111,
Nam Tu hydroelectric plant,100,Hydro,2024,22.7209,
Dong Phu Yen hydroelectric plant,1500,Hydro,2030,20.9131,
Tanjung Sakti hydroelectric plant,114,Hydro,2029,-3.0661,
Super Tamor hydroelectric plant,166,Hydro,2027,27.5686,
Grindulu hydroelectric plant,1000,Hydro,2030,-8.0627,
Pingtanyuan hydroelectric plant,1400,Hydro,2027,31.1385,
Meghri hydroelectric plant,100,Hydro,2026,38.9031,
Middle Paunglaung hydroelectric plant,152,Hydro,2026,19.8601,
Bharbung hydroelectric plant,512,Hydro,2031,28.9292,
Xulong hydroelectric plant,2400,Hydro,2029,28.5833,
Sharada Babai Storage hydroelectric plant,93,Hydro,2026,28.2501,82.0
Buttu Batu hydroelectric plant,200,Hydro,2025,-3.0661,
Mahl hydroelectric plant,640,Hydro,2029,33.8441,
Hkankawn hydroelectric plant,140,Hydro,2026,26.0239,
Luocheng hydroelectric plant,1200,Hydro,2024,24.7776,
Pak Lay hydroelectric plant,770,Hydro,2027,18.4014,
Gandhi Sagar New hydroelectric plant,1440,Hydro,2029,24.5415,
Dulhasti-II hydroelectric plant,258,Hydro,2026,33.3103,
Tha Htay hydroelectric plant,111,Hydro,2024,19.5213,
Jianquan hydroelectric plant,1200,Hydro,2029,31.0955,
Khodzhikent hydroelectric plant,200,Hydro,2030,41.8901,
Stung Pursat hydroelectric plant,80,Hydro,2026,12.542,
Humla Karnali Cascade hydroelectric plant,230,Hydro,2025,29.8801,
Lentekhi hydroelectric plant,80,Hydro,2029,42.668,
Fengxin hydroelectric plant,1200,Hydro,2030,28.6785,
Fuping hydroelectric plant (Hebei),1200,Hydro,2024,38.8355,
Koyna Left Bank hydroelectric plant,80,Hydro,2025,17.396,
Kerbulak hydroelectric plant,110,Hydro,2026,44.0962,
Dadagau Khalanga Bheri hydroelectric plant,81,Hydro,2027,28.7042,
Yixian hydroelectric plant,1200,Hydro,2027,31.3218,
Kokhajor hydroelectric plant,111,Hydro,2027,27.2633,
Ritom Nuova hydroelectric plant,120,Hydro,2024,46.5175,
Pfaffenboden hydroelectric plant,300,Hydro,2025,47.9082,
Tauernmoos hydroelectric plant,170,Hydro,2025,47.1592,
Cruachan 2 hydroelectric plant,600,Hydro,2025,56.4198,
Silvermines hydroelectric plant,360,Hydro,2029,52.7914,
Kaprun Limberg III hydroelectric plant,480,Hydro,2025,47.1992,
Central West hydroelectric plant,325,Hydro,2027,-33.489,
Kidston hydroelectric plant,250,Hydro,2024,-19.0524,
