Title,Power,Type,Time,LocationLat,LocationLon
Mulilo Sonnedix Prieska solar farm,86,Solar,2016,-30.0215,22.3553
Sheikh Zayed Solar Power Plant,15,Solar,2013,18.1528,-15.9842
Lesedi solar farm,75,Solar,2014,-28.3154,23.3501
De Aar - Project 1 (Solar Capital) solar farm,85,Solar,2014,-30.5955,24.1035
Serenje solar farm,100,Solar,2023,-13.1126,30.4022
Adrar Solar Plant,20,Solar,2015,27.9077,-0.3174
Benban Scatec solar farm,65,Solar,2019,24.418,32.705
Kelaa Sraghna Solar,48,Solar,2023,32.0422,-7.405
Noor Tafilalt Erfoud Solar,40,Solar,2020,31.513,-4.275
Kahone solar farm,25,Solar,2017,14.178,-16.027
Benban Infinity solar farm,64,Solar,2019,24.418,32.735
Linde solar farm,40,Solar,2014,-30.9986,24.6506
Zeerust Solar Field,75,Solar,2021,-25.5748,26.0718
Zafarana solar farm,50,Solar,2023,29.1153,32.6598
Benban Acciona/Enara solar farm,50,Solar,2019,24.433,32.705
Herbert solar farm,20,Solar,2014,-29.0019,23.8019
Benban Arinna solar farm,25,Solar,2019,24.448,32.694
ISCC Ain Beni Mathar solar farm,20,Solar,2010,34.0683,-2.1047
Green Power PV Plant solar farm,30,Solar,2023,35.4619,-6.0365
Noor Ouarzazate solar farm,72,Solar,2018,31.0218,-6.8306
KarmSolar-Dakahlia Group solar farm,17,Solar,2022,30.5836,30.3333
Kalkbult solar farm,75,Solar,2013,-30.1607,24.1349
Lagos solar farm (Nigeria),360,Solar,2023,6.4733,3.1996
Elgordhab solar farm,10,Solar,2019,33.0506,10.4636
Kenhardt solar farm,180,Solar,2023,-29.3595,21.1504
Hassi R'Mel ISCC power station,20,Solar,2011,33.1252,3.3561
Paleisheuwel Solar Power Plant,83,Solar,2016,-32.4148,18.7379
Benban Scatec solar farm,65,Solar,2019,24.418,32.711
Benban Access/Eren solar farm,63,Solar,2019,24.448,32.711
Bui solar farm,30,Solar,2023,9.2726,-2.4161
Benban Alcazar solar farm,64,Solar,2019,24.4477,32.7433
Kodeni solar farm,38,Solar,2022,10.701,-4.194
Droogfontein solar farm,50,Solar,2014,-28.6133,24.7468
Photovoltaic Rooftops solar farm,130,Solar,2023,30.012,31.7456
Adams Aurora solar farm,75,Solar,2017,-27.3656,23.0131
Sadada (Total Energies) solar farm,500,Solar,2023,26.8234,18.1237
Konkoonsies solar farm,86,Solar,2019,-28.8872,19.5529
Tasiast mine solar farm,34,Solar,2023,20.5504,-15.511
Ayémé Plaine solar farm,60,Solar,2023,0.2293,9.5315
Benban Scatec solar farm,65,Solar,2019,24.403,32.705
Bui solar farm,30,Solar,2023,8.7896,-1.468
Bui Floating solar farm,50,Solar,2022,8.2794,-2.2363
Sakal solar farm,20,Solar,2018,15.857,-16.224
Pulida Solar Park,83,Solar,2017,-29.0438,24.9256
Ambatolampy solar farm,20,Solar,2018,-19.489,47.445
Snake Island Integrated Free Zone solar farm,20,Solar,2023,6.4246,3.3344
Benguela solar farm,97,Solar,2022,-12.9267,14.759
Itimpi solar farm,64,Solar,2023,-12.8186,28.237
Ain Skhouna Solar,30,Solar,2016,34.532,0.804
Solar 1000,50,Solar,2023,31.247,-0.6817
Mariental solar farm,46,Solar,2021,-23.6528,18.0272
Ambatolampy solar farm,20,Solar,2022,-19.489,47.445
Ras El Oued solar farm,20,Solar,2014,28.001,3.001
Baía Farta solar farm,96,Solar,2022,-12.6217,13.1807
Fas solar farm,500,Solar,2023,30.012,31.7456
Kenhardt solar farm,180,Solar,2023,-29.3595,21.1504
De Aar (Globeleq) solar farm,45.6,Solar,2014,-30.6234,24.0283
Sheikh Mohamed Bin Zayed solar farm,30,Solar,2021,8.3078,1.0103
Sidi Bennour Solar,48,Solar,2023,32.6524,-8.4277
Bokpoort Concentrated Solar Project,50,Solar,2016,-28.7333,21.9955
Nabq Global solar farm,10,Solar,2022,27.9629,34.3589
Kesses solar farm,40,Solar,2022,0.4304,35.4032
Diass solar farm,23,Solar,2022,14.652,-17.103
Siwa Solar PV Plant,10,Solar,2015,29.178,25.516
Long Draw Solar,225,Solar,2020,32.7414,-101.6218
Sol Do Cerrado Solar Project,34,Solar,2022,-15.3591,-43.8072
Etonia Creek solar farm,74,Solar,2023,29.7672,-81.7775
Victory Pass Solar,200,Solar,2023,33.701,-115.3163
Mariel solar farm,38.7,Solar,2021,22.946,-82.724
Sol Do Sertão Solar Complex,27,Solar,2021,-12.3253,-42.6241
Sol Do Futuro Solar Plant,27,Solar,2019,-3.9621,-38.3976
Hope Mills solar farm,78,Solar,2016,34.9182,-78.9436
North Star (D.E. Shaw) Solar Project,100,Solar,2016,45.486,-92.889
Coaldale solar farm,22,Solar,2022,49.7272,-112.623
Mendubim Solar Project,37,Solar,2023,-5.625,-37.0555
Hoot Lake Solar Project,50,Solar,2023,46.2906,-96.0433
El Roble solar farm (Colombia),20,Solar,2021,4.0999,-72.9088
Ocotillo Wells solar farm,52,Solar,2023,33.0747,-116.0912
Monte Plata Solar Plant,42.2,Solar,2023,18.8101,-69.7875
Beacon Solar Plant,47,Solar,2017,35.2658,-117.9992
Altiplano 200 Solar Power Plant,107,Solar,2021,-24.074,-66.9261
Desert Sunlight 300 solar farm,40,Solar,2013,33.8231,-115.3939
Bom Nome Solar Plant,65,Solar,2022,-7.8853,-38.7054
Amanecer Solar Cap Power Plant,100,Solar,2014,-27.119,-70.1715
Greensville County Solar Project,80,Solar,2020,36.6401,-77.57
Arlington Energy Center (NextEra) solar farm,133,Solar,2023,33.6909,-114.7749
Solar Electric Generating Station,80,Solar,1990,35.033,-117.338
California Valley Solar Ranch,21,Solar,2012,35.3237,-119.9166
Silver State Solar Power South,36,Solar,2016,35.604,-115.341
Solar Gen 2 Solar Facility,54,Solar,2014,33.142,-115.468
Huarajone PV Solar Plant,200,Solar,2023,-14.8813,-70.5899
Golinda Solar,100,Solar,2023,31.3467,-97.0828
Ranchland Solar,60,Solar,2017,36.4726,-76.1541
Indiana Crossroads solar farm,200,Solar,2023,40.7263,-86.852
Sol Do Cerrado Solar Project,32,Solar,2022,-15.4255,-43.818
Abril Photovoltaic Solar Project,134.6,Solar,2022,30.828,-112.672
Charlie Creek Solar Power Plant,75,Solar,2022,27.6398,-81.6544
Lar Do Sol Solar Plant,50,Solar,2022,-17.3763,-44.6735
Fort Gordon Solar Facility,30,Solar,2016,33.3866,-82.1401
West Of The Pecos Solar,100,Solar,2019,31.79,-103.865
Shirer Branch Solar Energy Center,74,Solar,2023,30.3962,-85.2797
San Juan Solar Plant,100,Solar,2022,10.8148,-73.0845
Arica-Parinacota (Mytilineos) solar farm,109,Solar,2023,-18.518,-69.6649
Nova Olinda Solar Power Plant,30,Solar,2017,-8.1898,-42.5643
Endless Caverns solar farm,31,Solar,2023,38.6136,-78.6771
Mccoy Solar Energy Project Hybrid,42,Solar,2016,33.6947,-114.7397
Temperance Solar,20,Solar,2020,41.753,-83.524
Don Jose Solar Plant,250,Solar,2018,21.3433,-100.592
Los Rastrojos solar farm,141,Solar,2023,-30.0016,-71.2192
La Pimienta solar farm,300,Solar,2022,18.028,-91.659
Chañares Solar Plant,40,Solar,2014,-26.375,-70.0801
Whitehouse solar farm,20,Solar,2016,38.023,-77.972
Abw Solar Walpole,20,Solar,2013,42.9378,-80.1447
Fusion Solar Center,20,Solar,2018,41.642,-72.049
Grassfield Solar,20,Solar,2022,36.663,-76.338
Antelope Dsr solar farm,105,Solar,2018,34.752,-118.315
Ghost Orchid Solar Energy Center,74,Solar,2022,26.4172,-81.0353
Amherstburg Solar Park,20,Solar,2011,42.1658,-83.0849
Solidago (ENGIE) Solar,50,Solar,2022,39.3952,-75.7535
Aura Solar,32,Solar,2018,24.0588,-110.3228
Domeyko Solar Park,70,Solar,2023,-33.4665,-70.673
Illari solar farm,112.2,Solar,2023,-16.4353,-71.836
Ruff Solar,22,Solar,2020,35.292,-81.783
Blythe (NextEra) solar farm,32,Solar,2016,33.674,-114.744
Água Vermelha solar farm,30,Solar,2019,-19.8663,-50.3788
Cork Oak Solar,20,Solar,2017,36.371,-77.571
Sol Do Cerrado Solar Project,50,Solar,2022,-15.4082,-43.8192
Sunshine Valley Solar,104,Solar,2019,36.518,-116.497
Caldeirão Grande solar farm,30.9,Solar,2022,-7.395,-40.5836
Futura Solar Complex,31,Solar,2022,-9.6688,-40.6758
Elm Branch Solar 1,135,Solar,2021,32.2326,-96.7061
Floresta Photovoltaic Solar Power Plant,22,Solar,2017,-4.9756,-36.9052
Guajiro Solar Plant,129.5,Solar,2019,20.1872,-99.736
Pavant Solar 3,20,Solar,2016,39.157,-112.371
Briel Farm solar farm,20,Solar,2021,37.5236,-77.2636
Bayshore Solar,20,Solar,2017,34.6678,-118.2981
Domeyko Solar Park,135,Solar,2023,-33.4665,-70.673
Dothan Solar Project,80,Solar,2023,31.2307,-85.5347
Taygete Energy Project solar farm,204,Solar,2023,31.186,-103.128
Janaúba Solar Complex,50,Solar,2022,-15.9248,-43.469
Tres Bahias Solar,195,Solar,2023,28.6885,-96.5098
Maplewood (Canadian Solar) solar farm,222,Solar,2021,30.9766,-102.2578
Spring Coulee Solar Project,42,Solar,2023,49.2875,-113.1599
Innovative Solar 43,51,Solar,2016,34.5301,-78.3048
Meridian solar farm,52,Solar,2019,32.454,-88.5495
2W Permian Solar Project Hybrid,420,Solar,2021,32.1164,-102.5283
Fighting Jays Solar Project,228,Solar,2022,29.345,-95.728
Alejandría Solar Project,150,Solar,2022,5.5508,-74.004
Sertão Solar Barreiras Complex,117,Solar,2020,-12.047,-45.069
Nabusimake solar farm,100,Solar,2023,10.4631,-74.6158
Sun City Project solar farm,20,Solar,2011,35.9831,-120.1103
Eden Solar,48,Solar,2015,35.1485,-79.6364
Penn solar farm,20,Solar,2023,40.7925,-76.9051
São Gonçalo Solar Park,43,Solar,2022,-10.107,-45.2701
Copper Mountain Solar 4,42,Solar,2016,35.7822,-114.9754
Ivanpah Solar Electric Generating System,130,Solar,2013,35.5808,-115.4825
Buckingham solar farm,20,Solar,2021,37.5064,-78.381
Blue Heron Solar,74,Solar,2020,26.7016,-81.1292
Cove Mountain Solar,58,Solar,2020,37.6231,-113.6192
Sunflower County solar farm,100,Solar,2022,33.7578,-90.5365
Regan Solar,20,Solar,2022,42.9547,-74.3131
Janaúba Solar Complex,50,Solar,2022,-15.9493,-43.5274
Blythe (NextEra) solar farm,32,Solar,2016,33.674,-114.744
Blue Elk Solar,20,Solar,2023,41.919,-83.996
Pioneer Solar,80,Solar,2021,39.7616,-104.459
Macbeth Solar,20,Solar,2022,43.437,-86.353
Techren Solar,50,Solar,2020,35.8997,-114.9263
Planeta Rica Solar Park,27,Solar,2022,8.4415,-75.6025
Victor Phelan Solar One,20,Solar,2013,34.5123,-117.4775
Lavras Solar Project,27,Solar,2022,-3.8033,-38.9182
Janaúba Solar Complex,50,Solar,2022,-15.939,-43.525
Solana Solar Generating Station,125,Solar,2013,32.9223,-112.9559
Cypress Pond Solar,74,Solar,2023,30.4213,-85.441
Pampa Tigre Solar PV Project,100,Solar,2022,-22.4559,-68.9275
Chipola River Solar Energy Center,74,Solar,2023,30.4546,-85.2785
São Gonçalo Solar Park,43,Solar,2022,-10.1161,-45.2738
Virginia Line Solar,35,Solar,2023,36.5238,-78.2854
Adobe Solar,20,Solar,2014,35.1028,-118.9544
Dougherty County Solar,120,Solar,2019,31.512,-84.0445
Horus Energy PV Solar Plant,35,Solar,2015,14.0533,-90.3544
Hooper Solar,52,Solar,2015,37.6919,-105.9908
Sobrado solar farm,30,Solar,2019,-9.3812,-41.8121
Little Bear solar farm,20,Solar,2020,36.716,-120.415
Branscomb Solar,20,Solar,2021,42.963,-73.5867
Prineville Solar Energy,46,Solar,2021,44.268,-120.878
Phoebe Solar,250,Solar,2019,31.8434,-102.8683
Solem Solar Power Plant,140,Solar,2019,21.8942,-102.076
Remolino solar farm,99.9,Solar,2022,10.6552,-74.5975
Baxley solar farm,25,Solar,2020,31.8777,-82.3339
Desert Sunlight 300 solar farm,20,Solar,2014,33.8231,-115.3939
Sol Do Futuro Solar Plant,27,Solar,2019,-3.9553,-38.395
Los Llanos Solar Forest,27,Solar,2023,3.464,-73.1386
Albany County solar farm,20,Solar,2023,42.5155,-73.8335
Switchgrass Solar,70,Solar,2023,36.6765,-76.5859
Payne Creek Solar,70,Solar,2018,27.6646,-81.9642
Egret Solar Center,74,Solar,2020,30.295,-82.186
Briar Creek Solar,127,Solar,2021,32.0675,-96.5851
Searcy Solar Hybrid,100,Solar,2022,35.233,-91.69
La Dorada (Enerfin) solar farm,129,Solar,2023,5.4679,-74.6745
Greenstone Solar,20,Solar,2023,41.942,-85.122
Agua Caliente Solar Project,91,Solar,2012,32.9774,-113.4945
Desert Sunlight 300 solar farm,20,Solar,2013,33.8231,-115.3939
Route 66 Energy Center solar farm,50,Solar,2022,35.0984,-107.6146
Bolivar PV Solar Forest,20,Solar,2023,10.6409,-75.0016
Baldy Mesa Solar,150,Solar,2023,34.6092,-117.4543
Juazeiro Solar PV Plant,30,Solar,2018,-9.5319,-40.4878
Cool Springs Solar,213,Solar,2021,30.7479,-84.6805
Camilla Solar Energy Project,171,Solar,2020,31.2696,-84.2287
Bom Nome Solar Plant,65,Solar,2022,-7.8839,-38.6947
Mount solar farm (United States),34,Solar,2014,32.662,-115.577
Pullman Solar,20,Solar,2022,42.4716,-86.0969
Central Antelope Dry Ranch solar farm,20,Solar,2016,34.7205,-118.3005
Rippey Solar,59,Solar,2020,33.5493,-97.1798
Hokes solar farm,20,Solar,2023,39.9373,-76.771
La Unión Solar Park,100,Solar,2023,8.2705,-75.0095
Lavras Solar Project,27,Solar,2022,-3.7951,-38.9182
TA-High Desert solar farm,20,Solar,2013,34.7089,-118.3047
Bell Ridge Solar,74,Solar,2023,29.7187,-82.7108
Solar Sault Ste. Marie,40,Solar,2011,46.548,-84.281
Rio Escondido Solar Park,145,Solar,2021,-27.879,-70.195
Desert Sunlight 250 solar farm,25,Solar,2014,33.8055,-115.3947
Bay Tree solar farm,70,Solar,2021,34.705,-78.401
Springbok solar farm,90,Solar,2019,35.1712,-118.0017
Grizzly Ridge Solar,100,Solar,2023,31.7382,-98.2137
Caprock Solar,25,Solar,2016,34.984,-103.623
Humaco solar farm,20,Solar,2023,18.1346,-65.8223
Fort Drum Energy Center solar farm,74,Solar,2021,27.616,-80.791
Hesperus Solar,155,Solar,2023,37.2863,-108.0618
Futura Solar Complex,31,Solar,2022,-9.6812,-40.6608
Lavras Solar Project,20,Solar,2022,-3.7994,-38.9356
Valentine Solar,111,Solar,2019,34.9042,-118.3843
São Gonçalo Solar Park,50,Solar,2020,-10.1058,-45.2788
Black Bear Solar,100,Solar,2023,32.197,-86.3273
Solar Star 1,33,Solar,2015,34.8181,-118.4036
Sol Do Cerrado Solar Project,40,Solar,2022,-15.3651,-43.7946
Boa Hora Solar Plant,23,Solar,2019,-19.873,-50.8905
Las Viborillas solar farm,137,Solar,2019,21.8432,-101.719
Partin Solar,50,Solar,2023,36.268,-80.8219
El Mayo Photovoltaic solar farm,126,Solar,2021,26.887,-109.362
Coremas Solar Complex,27,Solar,2022,-6.9498,-38.0024
Taylor County Solar,148,Solar,2016,32.5831,-84.2972
Barilla Solar,30,Solar,2015,30.9601,-103.35
Pirapora Solar Complex,112,Solar,2017,-17.4086,-44.8736
La Cumbre PV solar farm,22,Solar,2018,-33.3298,-66.1691
Assembly Solar Project,79,Solar,2022,43.021,-83.932
Nonogasta Solar Park,42,Solar,2018,-29.3277,-67.4261
El Paso PV Solar Park,86,Solar,2023,9.7815,-73.7201
Elena PV solar farm,76.8,Solar,2023,-23.6231,-70.376
Elektron Solar,80,Solar,2023,40.8683,-112.7034
El Naranjal Solar Plant,59,Solar,2017,-31.2603,-57.8739
Guañizuil solar farm,92,Solar,2019,-30.3563,-69.2856
Cuyoaco solar farm,220.8,Solar,2020,19.5848,-97.5922
Barlow Trail solar farm,27,Solar,2023,50.9507,-113.982
Apple Data Center solar farm,21,Solar,2013,35.5881,-81.252
Uyuni PV Solar Plant,60,Solar,2018,-20.5766,-66.7696
Black Mesa Solar,40,Solar,2023,42.9074,-115.1815
Wing Solar,80,Solar,2023,31.0078,-86.5919
San Luis Valley Solar Ranch,35,Solar,2011,37.6945,-105.9276
Gaskell West 2&3 solar farm,20,Solar,2023,34.8279,-118.5682
Lost Hills-Blackwell solar farm,20,Solar,2015,35.6201,-119.85
Sandstone Solar,45,Solar,2015,33.041,-111.452
Peony (Pine Gate) solar farm,39,Solar,2018,33.502,-81.254
Desert Sunlight 250 solar farm,23,Solar,2013,33.8055,-115.3947
Bluemex Power Solar Project,120,Solar,2019,27.9973,-110.713
Silver State Solar Power South,35,Solar,2016,35.604,-115.341
Kelford solar farm,20,Solar,2015,36.155,-77.208
Hermosillo PV Solar Park,100,Solar,2018,28.9622,-111.503
Janaúba Solar Complex,50,Solar,2022,-15.9548,-43.5011
La Jacinta Solar Plant,65,Solar,2015,-31.4315,-57.9088
Los Llanos Solar Forest,99.9,Solar,2022,4.1395,-73.6317
Five Wells Solar Center,355,Solar,2023,30.9986,-97.259
Janaúba Solar Complex,50,Solar,2022,-15.9468,-43.5181
San Juan Solar Plant,100,Solar,2022,10.8148,-73.0845
Solar Electric Generating Station,30,Solar,1988,35.0148,-117.5659
Blythe (Clearway) solar farm,20,Solar,2017,33.6187,-114.6962
Puerto Peñasco Solar Project,300,Solar,2023,29.0903,-110.987
Carmen Aljaval solar farm,223,Solar,2018,18.6534,-91.8403
Janaúba Solar Complex,50,Solar,2022,-15.9728,-43.5143
Montague Solar,162,Solar,2023,45.5401,-120.18
Rosamond solar farm,20,Solar,2014,34.904,-118.253
Nova Olinda Solar Power Plant,30,Solar,2017,-7.9272,-42.6127
Midway (California) solar farm,30,Solar,2017,33.158,-115.541
Mccoy Solar Energy Project Hybrid,21,Solar,2016,33.6947,-114.7397
Solar Star 2,48,Solar,2014,34.8486,-118.3528
Grange Hall Solar,61,Solar,2019,27.682,-82.207
Ruta Del Sol solar farm,300,Solar,2022,4.9491,-74.5938
Loggerhead Solar Energy Center,74,Solar,2018,27.2378,-80.5414
Laurel Oaks solar farm,61,Solar,2022,27.92,-82.07
Albemarle Beach Solar,80,Solar,2020,35.903,-76.647
Guanajuato Mexsolar solar farm,30,Solar,2018,21.0632,-100.5641
Morrosquillos Solar Plant,20,Solar,2022,9.2118,-75.1916
American Kings Solar,128,Solar,2020,36.2401,-119.898
Bellflower Solar,152,Solar,2023,39.795,-85.416
Happy Solar 1,95,Solar,2023,35.1677,-91.6603
Ituverava Solar Plant,28,Solar,2017,-12.5873,-44.1069
Villanueva Solar Park,275,Solar,2018,25.5607,-103.051
Fifth Standard Solar,150,Solar,2023,36.1532,-120.1045
Prairie Sunlight solar farm,25,Solar,2020,49.9914,-112.059
Serra Do Mel Solar Plant,65,Solar,2023,-5.1436,-37.1583
Copper Mountain Solar 5,252,Solar,2021,35.7763,-114.9737
Ivanpah Solar Electric Generating System,117,Solar,2013,35.5331,-115.4525
Stardale solar farm,33,Solar,2012,45.4962,-74.5232
Lake Placid Solar Power Plant,45,Solar,2019,27.3311,-81.364
Villa María del Río Seco solar farm,20,Solar,2022,-29.9887,-63.7679
Upton County Solar,150,Solar,2017,31.252,-102.266
Alex Solar Complex,31,Solar,2021,-5.2522,-37.9896
Dogwood Solar,20,Solar,2014,36.121,-77.404
Great Valley Solar Portfolio Holdings,20,Solar,2017,36.5812,-120.3796
Lar Do Sol Solar Plant,50,Solar,2022,-17.3758,-44.6829
Hokes solar farm,20,Solar,2023,39.9254,-76.7838
Serra Do Mel Solar Plant,65,Solar,2023,-5.2834,-37.1196
Southfork Solar,74,Solar,2020,27.5732,-82.1914
Slate Hybrid solar farm,50,Solar,2021,36.227,-119.8948
Pirapora Solar Complex,31,Solar,2018,-17.4087,-44.8854
Great Valley Solar Portfolio Holdings,102,Solar,2018,36.5812,-120.3796
Mulligan Solar,70,Solar,2022,40.0939,-89.4204
Santa Fe Solar Power Plant,75,Solar,2021,29.871,-82.723
Assembly Solar Project,50,Solar,2020,43.022,-83.955
Coromandel solar farm,30,Solar,2022,-18.4197,-47.0636
Grand View Solar Two,60,Solar,2016,43.0186,-116.0071
Hawtree Solar,65,Solar,2021,36.533,-78.105
Little Bear solar farm,50,Solar,2020,36.716,-120.415
São Pedro Solar Plant,34,Solar,2018,-13.3227,-43.2951
Water Strider Solar,80,Solar,2021,37.0164,-79.0271
Janaúba Solar Complex,50,Solar,2022,-15.9488,-43.5018
Sertão Solar Barreiras solar farm,23.7,Solar,2019,-12.492,-45.7022
Bakersfield Solar,20,Solar,2015,35.1261,-119.2433
Hazlehurst solar farm,52,Solar,2016,31.8194,-82.6022
Emerald Grove solar farm,108,Solar,2022,31.0933,-102.3596
Bolivar PV Solar Forest,20,Solar,2023,10.6409,-75.0016
Webberville Solar Project,30,Solar,2011,30.2385,-97.5088
Versailles Cuatas solar farm,22.5,Solar,2020,24.0017,-104.5849
Bom Jesus Da Lapa Solar Park,24,Solar,2017,-13.3227,-43.354
Skipjack Solar Center,175,Solar,2022,37.383,-77.185
Tide Bay Solar,75,Solar,2023,27.7517,-81.8629
High Springs Solar Power Plant,75,Solar,2023,29.8101,-82.6398
Prospero Solar,250,Solar,2021,32.2758,-102.8448
Bluegrass Solar,80,Solar,2022,39.1788,-75.9609
Penonome PV Solar Plant,120,Solar,2021,8.6792,-80.2489
California Valley Solar Ranch,32,Solar,2013,35.3237,-119.9166
Grandy solar farm,20,Solar,2020,36.2336,-75.8808
Grasshopper Solar,80,Solar,2020,36.8501,-78.45
São Gonçalo Solar Park,50,Solar,2020,-10.1077,-45.2997
Antelope Big Sky Ranch solar farm,20,Solar,2016,34.6948,-118.2877
Pedranópolis PV Solar Complex,30,Solar,2022,-20.193,-50.0484
Copper Mountain Solar 3,26,Solar,2014,35.8894,-114.9579
Saujil Photovoltaic Solar Park,27,Solar,2018,-28.162,-66.2212
Allora Solar,75,Solar,2023,33.8993,-81.4005
Moquegua PV Solar Plant,20,Solar,2014,-17.543,-71.024
Futura Solar Complex,31,Solar,2022,-9.6866,-40.6644
Cattle Ranch solar farm,74,Solar,2020,27.3219,-81.8091
Janaúba Solar Complex,50,Solar,2022,-15.9368,-43.5036
California Valley Solar Ranch,87,Solar,2013,35.3237,-119.9166
Stateline Solar,34,Solar,2015,35.6001,-115.4001
Elora Solar,150,Solar,2022,35.0601,-86.34
Lone Star Solar,66,Solar,2023,33.6488,-80.6391
Kings Bay Solar Facility,30,Solar,2016,30.8276,-81.5562
East Chili solar farm,20,Solar,2023,40.9888,-76.7929
Antelope Dsr solar farm,50,Solar,2016,34.6556,-118.2807
Futura Solar Complex,31,Solar,2022,-9.6903,-40.6863
Sobral Photovoltaic Solar Power Plant,35,Solar,2017,-8.2889,-42.3697
Guernsey Solar Station,20,Solar,2013,36.1639,-119.6506
Pecan Solar,75,Solar,2018,36.481,-77.4812
Sol Del Desierto Solar Plant,244,Solar,2022,-22.3445,-69.6616
New Market (Ohio) solar farm,65,Solar,2023,39.0718,-83.7961
Alex Solar Complex,31,Solar,2021,-5.2383,-37.9854
Desert Sunlight 300 solar farm,23,Solar,2014,33.8231,-115.3939
LeGore Bridge Solar Center,20,Solar,2023,39.5724,-77.3079
Blythe (NextEra) solar farm,36,Solar,2016,33.6801,-114.742
Boa Esperanca solar farm,85,Solar,2023,-16.7231,-43.8473
Phobos Solar,79,Solar,2023,35.8829,-78.155
Horus Energy PV Solar Plant,58,Solar,2015,14.0533,-90.3544
Magdalena solar farm,220,Solar,2019,19.5523,-98.3522
Bonnie Mine Solar,38,Solar,2019,27.878,-81.915
Silver State Solar Power South,26,Solar,2016,35.604,-115.341
Malgarida PV Solar Project,119,Solar,2021,-26.278,-69.961
Mendubim Solar Project,28,Solar,2023,-5.6182,-37.0408
Castilla Solar Park,21,Solar,2019,3.8901,-73.6889
Fayetteville Solar,23,Solar,2015,34.8344,-78.8436
Encino Solar Energy Center,55,Solar,2020,35.354,-106.858
Solar Oasis,20,Solar,2016,34.666,-118.088
El Soco solar farm,50,Solar,2022,18.4472,-69.1874
Whitetail Solar,20,Solar,2020,39.895,-77.8061
Rio Bravo Solar,20,Solar,2016,35.4225,-119.6292
Cement City Solar,20,Solar,2023,42.0845,-84.1353
Jicarilla Solar,50,Solar,2022,36.1411,-107.1712
Mendubim Solar Project,32,Solar,2023,-5.6262,-37.0286
Floresta Photovoltaic Solar Power Plant,32,Solar,2017,-4.9643,-36.9106
Serra Do Mato Solar Park,41,Solar,2022,-5.1218,-37.2087
Janaúba Solar Complex,50,Solar,2022,-15.9229,-43.5345
Stateline Solar,38,Solar,2016,35.6001,-115.4001
Copper Mountain Solar 2,30,Solar,2012,35.7864,-114.9628
Moapa Southern Paiute solar farm,250,Solar,2016,36.5301,-114.7703
AT Solar Park,180,Solar,2020,29.9568,-112.6523
Little Manatee River Solar,74,Solar,2020,27.6799,-82.4106
Bom Jesus Da Lapa Solar Park,25,Solar,2018,-13.3272,-43.3572
Lapa Solar Park,39,Solar,2017,-13.3201,-43.3682
Cameron (EDP) Solar,20,Solar,2017,33.574,-80.707
Babcock Solar Energy Center Hybrid,74,Solar,2016,26.865,-81.741
Tepuy solar farm,83,Solar,2023,5.4689,-74.6711
Sonny Solar,40,Solar,2023,34.052,-82.7222
East Nash Solar,23,Solar,2023,35.9557,-78.0936
Hardin Solar Energy,150,Solar,2021,40.6595,-83.8137
Demille solar farm,28,Solar,2017,43.0401,-83.3333
Pedranópolis PV Solar Complex,30,Solar,2022,-20.1946,-50.0407
Alpaugh solar farm,20,Solar,2012,35.9025,-119.4428
Holtwood solar farm,20,Solar,2023,39.832,-76.3275
Guaimbé Solar Park,30,Solar,2018,-21.8857,-49.8696
Northern Preserve Solar,74,Solar,2020,30.232,-82.25
Energía Limpia De La Laguna solar farm,35,Solar,2019,25.965,-103.382
Vandenberg Solar Project,25,Solar,2017,34.7497,-120.51
Salsipuedes PV solar farm,30,Solar,2020,22.6196,-100.861
Bocas Solar Plant San Luis Potosí,30,Solar,2016,22.518,-101.022
North 301 Solar,20,Solar,2019,36.213,-77.624
Project Parker solar farm,270,Solar,2023,31.5196,-97.1194
Cereal City Solar,100,Solar,2023,42.3058,-85.0323
Xoxocotla solar farm,70,Solar,2019,18.7564,-99.0703
San Felipe Tolima Solar Park,90,Solar,2023,5.1275,-74.8981
Samson Solar Energy,200,Solar,2023,33.251,-95.1934
Drew Solar,100,Solar,2022,32.6872,-115.6656
Solar Electric Generating Station,80,Solar,1989,35.0308,-117.3563
Cauchari Solar Power Complex,105,Solar,2020,-24.0915,-66.7248
Mendubim Solar Project,55,Solar,2023,-5.6318,-37.0567
Sertão solar farm,30,Solar,2017,-8.5504,-42.2927
Wistaria Ranch Solar,107,Solar,2018,32.676,-115.619
Libertad solar farm,55,Solar,2023,-23.8642,-69.128
Cove Mountain Solar,122,Solar,2020,37.6386,-113.6371
Mount solar farm (United States),154,Solar,2020,32.6685,-115.6292
Yellowbud Solar,274,Solar,2023,39.5025,-83.0656
Newport Solar Project,180,Solar,2023,35.6689,-91.1871
Sertão Solar Barreiras solar farm,23.7,Solar,2019,-12.3202,-45.7218
AES Waikoloa Solar Hybrid,30,Solar,2023,19.902,-155.764
Blackwater River Solar Energy Center,74,Solar,2023,30.6469,-86.9382
High Desert Hybrid solar farm,100,Solar,2021,34.6365,-117.3724
Los Llanos Solar Forest,25,Solar,2022,3.464,-73.1386
Fundacion (Latamsolar) solar farm,100,Solar,2021,10.4631,-74.6158
Lake Mabel Solar,74,Solar,2023,27.9788,-81.6102
LaFayette Solar Farm,79,Solar,2017,32.8763,-85.3882
Mccoy Solar Energy Project Hybrid,42,Solar,2016,33.6947,-114.7397
Cottage Grove Solar,20,Solar,2023,43.0832,-89.3215
Perry solar farm,68,Solar,2021,32.396,-83.7629
Little Bear solar farm,50,Solar,2020,36.716,-120.415
Arlington Energy Center (NextEra) solar farm,100,Solar,2022,33.6909,-114.7749
Golden Field Solar,54,Solar,2016,34.839,-118.3868
Stateline Solar,38,Solar,2016,35.6001,-115.4001
São Gonçalo Solar Park,35,Solar,2020,-10.1235,-45.2886
Calverton Solar Energy Center,23,Solar,2022,40.9137,-72.7504
Blackwell Solar Park,20,Solar,2019,35.612,-119.845
Fox Creek Solar,50,Solar,2018,36.1269,-78.2731
Coremas Solar Complex,27,Solar,2022,-6.9592,-37.9929
Luzia Solar Park,74.5,Solar,2022,-6.8457,-36.9299
Chesapeake solar farm,118,Solar,2023,39.4564,-77.9663
Arlington Valley Solar Energy II,28,Solar,2013,33.305,-112.8339
Lyons Road Solar,20,Solar,2022,42.9658,-84.1429
Tenaska Imperial Solar Energy Center,149,Solar,2016,32.7722,-115.7793
Townsite Solar Project Hybrid,180,Solar,2022,35.9373,-114.884
Sarnia Solar,20,Solar,2009,42.9378,-82.3417
Sadler Solar,100,Solar,2021,36.6867,-77.558
Great Valley Solar Portfolio Holdings,60,Solar,2017,36.613,-120.385
Finis Terrae Photovoltaic Solar Plant,160,Solar,2016,-22.342,-69.522
Coral Farms Solar Energy Center,74,Solar,2018,29.7569,-81.8972
Villa Ahumada solar farm,150,Solar,2020,30.1603,-106.452
San Miguel De Allende Solar Photovoltaic Plant,35,Solar,2021,20.892,-100.575
Mendubim Solar Project,32,Solar,2023,-5.6119,-37.0241
Clydesdale solar farm,75,Solar,2022,50.2824,-112.411
Brantley Solar,50,Solar,2018,35.894,-78.149
Terrell solar farm,74,Solar,2020,31.8714,-84.362
Big Star Solar,200,Solar,2023,29.8941,-97.2705
Gaskell West 2&3 solar farm,45,Solar,2023,34.8349,-118.5512
Guañizuil Solar Power Plant,117,Solar,2021,-30.3412,-69.2773
Horizon Solar Energy Center,74,Solar,2018,29.6656,-82.0583
Guanajuato Mexsolar solar farm,30,Solar,2018,21.0619,-100.5353
Futura Solar Complex,31,Solar,2022,-9.6959,-40.6829
Albany County solar farm,20,Solar,2023,42.5079,-73.8365
Thunder Wolf Energy Center Hybrid solar farm,248,Solar,2023,38.1899,-104.398
Mililani South solar farm,39,Solar,2022,21.4279,-158.0199
25 Mile Creek solar farm,250,Solar,2023,36.487,-99.739
Solar Star Oregon II,56,Solar,2017,44.1843,-120.918
Horizonte Solar Park,29,Solar,2018,-12.6141,-44.0896
Dileo solar farm,87,Solar,2023,31.9343,-97.667
Alex Solar Complex,31,Solar,2021,-5.2447,-37.9742
Horizonte Solar Park,29,Solar,2018,-12.609,-44.0852
Lumina Solar Project,327,Solar,2023,32.9011,-100.9827
Esperanza solar farm,90,Solar,2023,19.5834,-70.9628
Janis Solar,20,Solar,2023,42.4539,-75.931
Pleasant Hill (Sun Tribe) Solar,20,Solar,2023,36.6922,-76.5786
Woods Hill Solar,20,Solar,2018,41.8318,-71.9199
Two Creeks Solar,150,Solar,2020,44.2496,-87.5453
Pershing Solar,29,Solar,2023,40.3914,-118.478
Las Lomas solar farm (Argentina),40,Solar,2022,-29.1796,-67.5057
Copper Mountain Solar 3,26,Solar,2014,35.8894,-114.9579
Burdett Solar,39,Solar,2021,49.8159,-111.543
Futura Solar Complex,31,Solar,2022,-9.6744,-40.6758
Maverick Solar,100,Solar,2021,33.7001,-115.38
Doña Carmen PV solar farm,40,Solar,2017,-32.4787,-71.255
Big Cypress Solar,180,Solar,2023,35.3446,-90.3075
Pink Trail Solar Energy Center,74,Solar,2023,27.2978,-80.5421
Riverside Solar Project,100,Solar,2023,44.286,-76.0261
DeSoto 2 solar farm,65,Solar,2023,31.8865,-84.0216
Riverstart Solar Park,200,Solar,2021,40.0462,-85.0451
Copper Mountain Solar 1,48,Solar,2010,35.7814,-114.993
Babcock Preserve solar farm,74,Solar,2020,26.854,-81.725
Basseterre Valley solar farm,38,Solar,2023,17.321,-62.7033
Coniglio Solar,124,Solar,2021,33.4045,-96.0825
Titan (California) solar farm,70,Solar,2020,33.1016,-116.01
Daggett solar farm,300,Solar,2023,34.8609,-116.8553
Lar Do Sol Solar Plant,50,Solar,2022,-17.3606,-44.6843
Copper Mountain Solar 2,30,Solar,2015,35.7864,-114.9628
Atwell Island solar farm,20,Solar,2015,35.815,-119.4597
Puerto Peñasco Solar Project,120,Solar,2023,29.0903,-110.987
Lamesa Solar,102,Solar,2017,32.7156,-101.9265
Elk Hill Solar,20,Solar,2022,39.8492,-77.9292
Adera Solar,20,Solar,2015,37.1206,-120.3249
Arlington Valley Solar Energy II,28,Solar,2013,33.305,-112.8339
Maria José solar farm,22,Solar,2021,-18.6029,-70.1033
Discovery Solar Center,74,Solar,2021,28.5289,-80.6789
Dodge Flat solar farm,200,Solar,2022,40.713,-119.4672
Arlington Valley Solar Energy II,26,Solar,2013,33.305,-112.8339
Guaimbé Solar Park,30,Solar,2018,-21.8981,-49.8687
Clay (Silicon Ranch Corporation) solar farm,106,Solar,2022,31.5448,-84.9006
El Campano Solar Park,99.9,Solar,2023,9.1067,-75.4054
Altavista Solar,80,Solar,2021,37.1482,-79.3475
Suffield Cypress solar farm,23,Solar,2020,50.2774,-111.277
Sol Do Cerrado Solar Project,40,Solar,2022,-15.4292,-43.8037
Old River One solar farm,20,Solar,2014,35.218,-119.078
Cantua Solar Station,20,Solar,2012,36.4251,-120.3435
Grand View Solar Two,20,Solar,2016,43.0186,-116.0071
Pleinmont Solar,240,Solar,2021,38.2471,-77.7862
Alma solar farm,20,Solar,2022,10.8609,-74.7744
Wood County Solar Project,150,Solar,2022,44.2736,-89.9335
Seville solar farm,30,Solar,2015,33.1101,-116.0059
Kingbird Solar,20,Solar,2016,34.844,-118.448
Serra Do Mato Solar Park,47,Solar,2023,-3.3192,-39.3753
São Pedro Solar Plant,34,Solar,2018,-13.3227,-43.2951
Helios Cesarocaña Solar Park,200,Solar,2023,8.231,-73.355
Canoas PV Solar Park,200,Solar,2020,4.5809,-74.2154
Oruru Photovoltaic Solar Plant,50,Solar,2021,-17.7717,-67.4383
Desert Sunlight 300 solar farm,25,Solar,2014,33.8231,-115.3939
Bear Ridge Solar,100,Solar,2023,43.14,-78.763
Futura Solar Complex,31,Solar,2022,-9.6911,-40.6622
Apodi solar farm,33,Solar,2018,-5.0445,-37.7929
Rivadavia solar farm,40,Solar,2021,-31.5601,-68.645
Lyons Solar,20,Solar,2023,40.472,-75.785
Capella Solar Park,70,Solar,2020,13.3111,-88.5391
Centinela Solar Energy,27,Solar,2014,32.6869,-115.6478
Gutenberg Solar,80,Solar,2019,36.4864,-77.5348
Avant Energías Renovables solar farm,36,Solar,2017,27.6557,-105.164
Sol Do Sertão Solar Complex,80,Solar,2021,-12.3248,-42.6134
Pumpkinseed Solar Project,60,Solar,2022,36.6406,-77.5768
Odom solar farm,20,Solar,2020,31.0699,-83.5962
Kettleman (Clenera) solar farm,20,Solar,2015,36.0508,-119.9475
Albany solar farm,50,Solar,2023,42.6658,-89.3718
Gaskell West 1 Solar Facility,20,Solar,2018,34.8328,-118.5636
Ivanpah Solar Electric Generating System,130,Solar,2013,35.5561,-115.4686
Gansu Yumen (Xin'ao) solar and wind complex with storage,400,Solar,2023,40.225,97.772
Xinjiang Altay Fuhai Efisheng solar farm,20,Solar,2017,46.3297,87.8968
Al Namaa Poultry solar farm,15,Solar,2023,23.1601,55.8201
Phù Mỹ solar farm,110,Solar,2020,14.2449,109.1018
Qinghai Gonghe Datang solar farm,20,Solar,2016,36.2774,100.6237
Hebei Cangzhou Nandagang (Huineng) solar farm,36,Solar,2020,38.598,117.417
Shaanxi Baishui Dingxin solar farm,20,Solar,2019,35.1774,109.5912
Machang solar farm,45,Solar,2023,5.731,102.164
Shanxi Province Fenyang Jiajiazhuang solar farm,50,Solar,2014,37.2945,111.8101
Hebei Julu Daliuzhuang Yangpu solar farm,49,Solar,2017,37.2844,115.1973
Guizhou Nayong Tunjiao solar farm,50,Solar,2021,26.6288,105.1891
Qinghai Gonghe Huadian solar farm,25,Solar,2016,36.7228,99.7833
Zhejiang Changshan Xiaokang solar farm,21,Solar,2019,29.0001,120.0001
Jiangxi Ruichang Fanzhen Taida solar farm,35,Solar,2015,29.5895,115.5534
Palaswade (Tata) I solar farm,25,Solar,2014,17.5599,74.834
Qinghai Hainan (China Energy Investment) Pastoral Solar and Storage solar project,200,Solar,2023,36.152,100.595
Qinghai Golmud Luneng solar farm,20,Solar,2017,36.3798,95.0911
Hong Phong 5.2 solar farm,48,Solar,2020,11.082,108.279
Shanxi Baode Yaogetai Poverty Alleviation solar farm,30,Solar,2019,38.9526,111.2665
Hubei Tianmen Chenhu (Tongwei) Fishery solar farm,400,Solar,2023,30.5125,113.3691
Xinjiang Changji Qitai TBEA solar farm,20,Solar,2014,43.8076,89.8911
Henan Jiyuan Dayu solar farm,20,Solar,2016,34.4713,112.109
Liaoning Chaoyang Jingao solar farm,20,Solar,2017,41.6404,121.1406
"Jiangsu Province Baoying ""Front Runner"" Liubao 1 solar farm",100,Solar,2018,33.1477,119.5892
Xinjiang Kashgar Maigaiti Linuo solar farm,20,Solar,2015,38.9951,77.5251
Guangxi Chongzuo Jiangzhou Banchong solar project,160,Solar,2022,22.3233,107.3895
Ham Kiem solar farm,49,Solar,2019,10.905,108.004
Inner Mongolia Zhuozi Xinyuan solar farm,20,Solar,2015,40.8939,112.5778
Shaanxi Province Dingbian Guangneng solar farm,50,Solar,2015,37.6544,107.6037
Qinghai Guoluo Maqin solar farm,43,Solar,2022,34.4771,100.2382
Inner Mongolia Erdos Dalate Hengda solar farm,100,Solar,2016,40.3035,109.7163
Hebei Province Weixian Yangzhuangke Beikong solar farm,50,Solar,2016,40.025,114.5461
Ozu 2 solar farm,34,Solar,2019,32.928,130.958
Gansu Jinta Huisheng solar farm,100,Solar,2022,39.985,98.973
Hebei Quyang Zhuangke Baoneng solar farm,20,Solar,2015,38.686,114.705
Anhui Guichi Qiujiang Fishery solar farm,100,Solar,2023,30.6225,117.4128
Jiangsu Yancheng Dafeng SPIC Tidal Flat solar farm,20,Solar,2012,33.1297,120.5795
Qinghai Hainanzhou 2020-7 Plot solar farm,100,Solar,2020,36.1901,100.5563
Ningxia Helan Aiyou'en solar farm,30,Solar,2019,38.6496,106.4363
Shandong Kenli (Hongtai) solar farm,40,Solar,2020,38.0281,118.6268
Xinjiang Kashgar Shule Tengsheng solar farm,20,Solar,2017,39.4022,76.0465
Humnabad solar farm,20,Solar,2017,17.735,77.211
Hennan Linzhou Caisangzhen JA solar farm,20,Solar,2016,35.9956,113.9066
Ningxia Ningdong Huadian solar farm,70,Solar,2019,37.7955,106.8005
Yunnan Yanshan Taike solar farm,20,Solar,2016,25.0001,102.0001
Guizhou Panzhou Rooftop Distributed solar project,46.6,Solar,2022,25.7106,104.4771
Haridwar I solar farm,30,Solar,2017,29.8788,77.7364
Dammakhedi Fixed solar farm,20,Solar,2015,23.98,75.336
Hebei Zhangjiakou Shaogouzhen Jingke solar farm,20,Solar,2015,41.4814,114.8774
Inner Mongolia Dengkou (Jingke Guolong) solar farm,100,Solar,2023,40.4506,106.9217
Shaanxi Yuyang Xiehe solar farm,50,Solar,2016,38.7761,109.6621
Zhejiang Changxing Lüshan Photovoltaic solar farm,70,Solar,2016,29.0001,120.0001
Hebei Province Quyang (Three Gorges) solar farm,20,Solar,2013,38.6889,114.5095
Jiangsu Jinhu (Zhaohui) fisheries Photovoltaic solar farm,50,Solar,2017,33.0701,119.0907
Jiangsu Haizhou Punan Zhongxiang solar farm,20,Solar,2015,34.6463,119.1124
Suntholi solar farm,25,Solar,2015,24.721,75.036
Shaanxi Yuyang Huadian solar farm,50,Solar,2016,38.7749,109.6586
Tibet Dangxiong Yangbajing solar farm,20,Solar,2012,30.0973,90.5359
Charanka (Astra) Solar Park,40,Solar,2017,23.9201,71.1812
Shandong Dong'e Niujiaodian (Huiqingnong) solar farm,40,Solar,2023,36.4017,116.4347
Gansu Gaotai Gaoyazitan (Gaotai Laite) solar farm,30,Solar,2022,39.2742,99.4776
Hebei Zhangjiakou Yangyuan Hengbo solar farm,30,Solar,2016,40.091,114.341
Guangdong Zhaoqing Gaoyao Jinshan solar farm,100,Solar,2022,22.9667,112.4037
Ningxia Zhongwei Shapotou Zhenyang solar farm,100,Solar,2013,37.564,105.0444
Shaanxi Changwu Agricultural solar power plant,100,Solar,2022,35.1332,107.7527
Bikaner (Avaadd) solar farm,300,Solar,2022,28.018,73.3033
Jiangxi Yugan Daxixiang (Lingyang) solar farm,150,Solar,2022,28.5806,116.6499
Xinjiang Hami Yuancheng Power Investment solar farm,20,Solar,2016,42.7735,93.6023
Jiangxi Xingzixian Shaling solar farm,20,Solar,2016,29.3118,116.0183
Núi Một Lake solar farm,50,Solar,2020,11.422,108.959
Xinjiang Akesu Keping Hairun solar farm,30,Solar,2015,40.5858,79.6255
Guizhou Guanling Gangwu Longgu Agriculture solar farm,80,Solar,2019,25.962,105.297
Xinjiang Wulumuqi Dabancheng (Huadian) 200 MW solar power plant,200,Solar,2023,43.429,88.331
Hubei Tuanfeng Shangbahe (Shengyang) Agriculture solar farm,100,Solar,2020,30.6461,114.8672
Shandong Zaozhuang Fengmaozhen Haichuan solar farm,20,Solar,2016,35.2023,117.3418
Shaanxi Xi'an Xinyao Distributed solar project,112.5,Solar,2022,36.0572,108.4663
Huildore solar farm,20,Solar,2018,13.681,76.788
Sichuan Liangshan Huidong Huiming solar farm,30,Solar,2016,26.5616,102.4659
Jaisalemer SECI Raj solar farm,20,Solar,2020,12.0483,77.0322
Sambhu Ki Bhurj II solar farm,150,Solar,2022,22.3376,71.7211
Manchitiya Jakson solar farm,20.7,Solar,2013,27.48,72.309
"Qinghai Delingha ""Front Runner"" Huawo solar farm",100,Solar,2018,37.3645,97.3023
Inner Mongolia Alashan Bayanhaote Luanjingtan solar farm,100,Solar,2015,37.9285,105.3659
Sichuan Jiulong Xigu solar farm,250,Solar,2023,28.9728,101.4779
Xinjiang Corps Kekedala 64th Regiment (China Nuclear) Unsubsidized solar power plant,100,Solar,2021,43.9138,81.3272
Jiangsu Yixing Pinhe Fisheries Photovoltaic solar farm,35,Solar,2017,33.0001,120.0001
"Shanxi Datong ""Front Runner"" Zuoyun Xiadian solar farm",100,Solar,2016,40.0133,112.7028
Guangxi Shangsi Naqin (Guangzhou Development) solar farm,200,Solar,2023,22.2131,108.0134
Shaanxi Dingbian Zhixinda solar farm,50,Solar,2017,37.5374,107.6308
Shanxi Pingding Yuhuangding SPIC solar farm,20,Solar,2017,37.7367,113.6562
Jiangxi Jingdezhen Leping solar farm,90,Solar,2022,28.9582,117.1335
Guangdong Zhaoqing Gaoyao Nan'an solar farm,100,Solar,2021,23.0234,112.4543
Jiangxi Gao'an Bajing (Datang) solar farm,80,Solar,2023,28.4492,115.3622
Prayagraj solar farm,50,Solar,2018,25.4741,81.8495
Guangxi Gangkou Guangpozhen Fishery solar farm,60,Solar,2017,21.6499,108.5448
Bacolod II (Negros PH) solar farm,50,Solar,2022,11.4099,122.2458
Guangxi Luchuan (Xijiang Environmental Energy) solar farm,20,Solar,2016,22.123,110.221
Yunnan Xundian Malupo solar farm,150,Solar,2023,25.6049,103.3061
Dhahran Solar Car Park,10.5,Solar,2013,26.3289,50.1068
Xinjiang Aksu Wushi Huayang Weiye solar farm,20,Solar,2015,41.1688,79.2868
Xinjiang Jimsar Lixin solar power plant,100,Solar,2022,44.7761,89.102
Shandong Dongping Jieshanzhen solar farm,20,Solar,2016,36.0295,116.634
Chhayan I solar farm,150,Solar,2019,27.177,71.825
Shanxi Yangqu Lingjingdian Competitively Bid solar power plant,100,Solar,2020,38.0512,112.9363
Hebei Cixian Muxing Rooftop solar farm,25,Solar,2017,36.494,114.093
Guangxi Suixi Yangganzhen Agriculture solar farm,50,Solar,2022,21.3152,109.9328
Ananthapuramu (Sprng) Ultra Mega Solar Park,98,Solar,2021,14.0321,78.4357
Xinjiang Karamay Baijiantan (PetroChina) solar farm,50,Solar,2022,45.665,85.158
Shanxi Province Datong Hunyuan Caicunzhen solar farm,100,Solar,2019,39.7858,113.6573
Srinivasapura solar farm,20,Solar,2017,13.369,78.365
Guangxi Jiangzhou Jiangnan solar farm,204,Solar,2023,22.5571,107.4597
Accordia Solar Fukushima Tomioka Power Plant,34.7,Solar,2019,37.3473,140.9754
Guangxi Fusui Nanbu solar power plant,321,Solar,2023,22.2974,107.6839
Jiangsu Nanjing Liuhe Fisheries Park Photovoltaic solar farm,30,Solar,2018,33.0001,120.0001
Shandong Gaotang Guguantun GCL solar farm,30,Solar,2016,36.9116,116.2073
Henan Ruyang Tuofengshan solar farm,30,Solar,2016,34.292,112.4292
Xinjiang Hami Shichengzi CGN solar farm,30,Solar,2013,43.0348,93.6374
Xinjiang Bazhou Yanqi Xin'ao Grid-Connected solar farm,20,Solar,2013,42.108,86.1182
Tibet Samzhubze Longyuan solar farm,30,Solar,2016,29.267,88.8833
Sichuan Liangshan Zhaojue Buyuexiang solar farm,30,Solar,2018,28.1768,102.8851
Tam Bo Lake solar farm,35,Solar,2021,10.7011,107.2687
Kamuthi (Adani) solar farm,72,Solar,2016,9.3457,78.3939
Shaanxi Hengshan Jiangshan solar farm,30,Solar,2019,37.958,109.2923
Shanxi Zuoyun Zhangjiachang Shengneng solar farm,50,Solar,2022,40.0847,112.8326
Bizen Mega-Solar Project,112,Solar,2020,34.8863,134.1363
Xinjiang Hebuxer Haitianda solar farm,30,Solar,2016,46.5187,86.0171
Siresandra solar farm,25,Solar,2018,13.083,78.292
Guizhou Guanling Nabo Forestry solar farm,170,Solar,2019,25.9165,105.346
Jiangsu Hongze Kepu Photovoltaic solar farm,25,Solar,2017,33.0001,120.0001
Guizhou Dushan Shangsi (Zhuoshen) solar farm,80,Solar,2020,25.6112,107.4973
Ningxia Shapotou Yingshuiqiao Suobao solar farm,20,Solar,2014,37.5092,105.1044
Teluk Kalong solar farm,24,Solar,2018,4.276,103.441
Xinjiang Turpan Xiehe solar farm,20,Solar,2015,42.9425,89.1737
Sparks Kuala Muda solar farm,30,Solar,2022,5.7463,100.5341
Guangdong Huadu Chini Fishery solar farm,220,Solar,2022,23.3874,113.0767
Shandong Wulian Ningxu solar farm,90,Solar,2023,35.801,119.008
Raichur (Hero) solar farm,29,Solar,2018,16.179,76.764
Sukkur solar farm,50,Solar,2023,24.8739,67.0169
Qinghai Yellow River Hydropower Gonghe solar farm,200,Solar,2016,36.283,100.6193
Xinjiang Hetian Zhongdiantou Grid-Connected solar farm,20,Solar,2012,37.0231,79.7824
Srepok 1 solar farm,50,Solar,2019,12.8789,107.7124
Guizhou Weining Dougu Qisheliangzi solar farm,40,Solar,2019,27.0324,103.9096
Hunan Huarong Beijinggang Xiangyang Fusheng solar farm,20,Solar,2017,29.347,112.4849
Guangxi Hengxian Tiantangling (Longyuan) Fishery solar farm,488,Solar,2023,22.677,109.531
Guizhou Qixingguan Yangjiawan Agriculture solar farm,200,Solar,2023,27.2859,105.2866
Gansu Wuwei Liangzhou Jiuduntan (Three Gorges) Desert Control solar power plant,200,Solar,2023,38.104,101.858
Jilin Baicheng Hangtai solar farm,100,Solar,2020,45.6156,122.8361
Anhui Feixi Yongfeng solar farm,20,Solar,2016,31.5555,117.0424
Tono solar farm,47,Solar,2020,39.2401,141.4201
Guangdong Lechang Jinyang Agriculture solar farm,100,Solar,2021,25.0699,113.0266
Shaanxi Yuyang Balasu Yuneng solar power plant,100,Solar,2023,38.2769,109.7155
Guangdong Yingde Yinghong Xianqiao Agricultural solar power plant,118,Solar,2021,24.2633,113.3818
Sichuan Abazhou Ruoergai Zhuokun solar farm,20,Solar,2016,33.7614,103.0166
Qinghai Gonghe Tiancheng solar farm,20,Solar,2016,36.2096,100.5985
Hubei Xiantao Linyang solar farm,200,Solar,2022,30.378,113.3079
Qinghai Province Hainanzhou Gonghe Beixiang Grid-Connected solar farm,20,Solar,2013,36.2782,100.6197
Xinjiang Qitai County Yijing solar power plant,200,Solar,2020,44.4254,89.8779
Shanxi Hunyuan (LONGi) solar farm,100,Solar,2020,39.6218,113.5389
Anhui Lai'an Zhangshanxiang Photovoltaic solar farm,20,Solar,2017,32.532,118.515
Zhejiang Wenling Songmen Fishery solar farm,230,Solar,2023,28.3142,121.5616
Xinjiang Hami Hongxing 2 Farm Guohua solar farm,50,Solar,2016,42.8535,93.1936
Xinjiang Changji Mulei Huarui solar farm,20,Solar,2016,43.8363,90.2888
Shaanxi Hanyin Agricultural solar power plant,100,Solar,2023,35.8894,109.1357
Shandong Dongying Kenli (Tianhui) solar farm,49,Solar,2020,37.5922,118.5408
Xinjiang Wujiaqu Beitashan Ranch Yue Hydropower solar farm,50,Solar,2020,45.2409,90.5143
Eurus Rokkasho Solar Park,115,Solar,2015,40.9243,141.353
Shinan Imja solar farm,100,Solar,2022,35.0977,126.1087
SGET Hiroshima Mega Solar,36,Solar,2021,34.6358,132.4053
Guangxi Hepu Baisha (Xinyi) Fishery solar farm,60,Solar,2021,21.713,109.565
Devdurga solar farm,20,Solar,2017,12.9753,77.7258
Hebei Shangyi (China Energy Construction) Pastoral solar farm,400,Solar,2023,41.099,114.129
Qinghai Province Gonghe Huanghe Hydropower solar farm,150,Solar,2015,36.1875,100.5735
Daigas Oita Mirai Solar Power Plant,27,Solar,2013,33.2558,131.7275
Qinghai Province Golmud Three Gorges Grid-Connected solar farm,50,Solar,2015,36.399,95.1318
Anhui Hefei Shengang Reservoir solar farm,20,Solar,2016,32.3099,117.1304
Guizhou Hezhang Zhezhuang Xingye solar farm,50,Solar,2019,27.3148,104.8275
Yunnan Yiliang Longdong solar farm,25,Solar,2023,24.846,103.1049
Saka Port Mega Solar Park,29,Solar,2016,38.9646,139.823
Inner Mongolia Wulanmulun Tianjiao Lvneng solar farm,500,Solar,2021,39.3022,110.2068
Gansu Province Jinchuan Xipo Guoneng Grid-Connected solar farm,50,Solar,2013,38.5721,102.1053
Tirunelvelli solar farm,100,Solar,2019,10.3261,77.9851
Shaanxi Province Chunhua Shiliyuan solar farm,100,Solar,2021,34.8951,108.4848
Sukkur solar farm,50,Solar,2023,24.8739,67.0169
Qinghai Province Gonghe Zhongli Talesun solar farm,100,Solar,2016,36.1875,100.5735
Shandong Zibo Kunlunzhen solar farm,20,Solar,2016,36.5894,117.9188
Al Taweelah solar farm,69,Solar,2023,24.7167,54.8501
Komono solar farm,46,Solar,2022,35.0889,136.4863
Xinjiang Xiwang Chuangmei solar farm,20,Solar,2016,43.862,87.6127
Guangdong Luoding Chuanbuzhen (Xinlong) Agriculture solar farm,80,Solar,2022,22.6099,111.6157
"Jiangsu Sihong Sunyuan Zhen distributed ""fisheries"" Photovoltaic solar farm",20,Solar,2017,33.0001,120.0001
Chuping (Hanwha) solar farm,30,Solar,2020,6.5415,100.2967
Hubei Guangshui Shili CLP solar farm,50,Solar,2017,31.6144,113.8835
Guangxi Tengxian Taohua (Guodian) Agriculture solar farm,150,Solar,2022,23.3367,110.9823
Hebei Province Shangyi Shunfeng solar farm,100,Solar,2016,41.4431,113.9501
Qinghai Province Golmud Rixin Grid-Connected solar farm,60,Solar,2013,36.3717,95.2628
Vietnam Solar Park,50,Solar,2019,10.764,106.3157
Xinjiang Hetian Minfeng Angli Grid-Connected solar farm,20,Solar,2014,36.9643,82.6783
Solar Friendly City solar farm,40,Solar,2021,36.6001,138.6501
Inner Mongolia Kulun Banner Zhenfa solar farm,30,Solar,2016,42.729,121.7842
Zhejiang Ninghai Chengtang fisheries Photovoltaic solar farm,22,Solar,2020,29.0001,120.0001
Xinjiang Hami Rongxin solar farm,20,Solar,2017,43.0335,93.5884
Hunan Huarong Beijinggang Heping Jingyao solar farm,20,Solar,2017,29.347,112.4849
Koratagere solar farm,20,Solar,2018,13.555,77.359
Ningxia Litong District (CNNC) solar farm,200,Solar,2020,37.7982,106.225
Gansu Qingshui Huangmen solar farm,100,Solar,2023,33.843,106.179
Xinjiang Kezhou Akto Xinte Grid-Connected solar farm,60,Solar,2016,39.1352,75.9364
Jilin Wangqing (State Power Investment) solar farm,23,Solar,2018,43.3104,129.7612
Gansu Wuwei Liangzhou Jiuduntan (Zhejiang Zhengtai) Desert Control solar power plant,200,Solar,2023,38.1434,102.7338
Guangxi Shanglin Baixu Fisheries solar power plant,60,Solar,2017,23.4,108.833
Xinjiang Bole (State Power Investment) solar farm,50,Solar,2023,44.759,82.104
Sichuan Derong Baisong Hydropower/Photovoltaic Integrated solar farm,210,Solar,2023,28.5107,99.253
Hebei Province Chengde Luanping Agricultural solar farm,30,Solar,2014,41.0553,117.4807
Misaki solar farm,34,Solar,2019,34.9892,134.098
Anhui Feidong Liangyuan Xianhupo Jinyang solar farm,100,Solar,2015,31.9415,117.5609
Cherry Lake solar farm,99,Solar,2019,34.588,136.437
Shaanxi Dingbian Wanheshun solar farm,30,Solar,2016,37.5374,107.6308
Xinjiang Bozhou Jinghe Fenghua solar farm,20,Solar,2017,42.4805,85.4633
Al Shagaya Solar Energy Park,50,Solar,2018,29.1987,47.0465
Xinjiang Turpan Qiquanhu Zhongli Tenghui solar farm,20,Solar,2014,43.1196,89.3573
Shanxi Linxian Baiwenzhen solar power plant,50,Solar,2023,38.1698,111.1144
Energy Seed Kitakyushu Solar Power Plan,21,Solar,2014,33.9383,130.8156
Hubei Qianjiang Xiongkou (China Resources) Fishery solar farm,150,Solar,2022,30.2735,112.7775
Xinjiang Hetian Moyu Xinhua solar farm,130,Solar,2016,37.2771,79.7276
Gansu Province Dingxi Tongwei solar farm,100,Solar,2023,35.308,105.032
Ningxia Shizuishan Shanyang solar farm,150,Solar,2018,39.2024,106.6466
Qinghai Hainanzhou 2020-10 Plot solar farm,100,Solar,2023,36.0401,100.3705
Jiangsu Danyang Huangtangzhen (Three Gorges) solar farm,150,Solar,2023,32.011,119.6013
Gansu Province Jiuquan Dunhuang Zhengtai Grid-Connected solar farm,50,Solar,2015,40.07,94.5018
Xinjiang Nileke Wuzan (Datang) solar farm,60,Solar,2020,43.8005,82.499
Shanxi Province Yanggao Longquan solar farm,50,Solar,2015,40.4169,113.7591
Sai Phet solar farm,29,Solar,2013,14.109,100.173
Shandong Province Dongying Linuo solar farm,20,Solar,2016,37.4611,118.5078
Gansu Gaotai Gaoyazitan solar farm,200,Solar,2022,39.279,99.7156
Xinjiang Bazhou Yanqi Huadian Grid-Connected solar farm,20,Solar,2013,42.1125,86.1224
Xinjiang Hebuxer Meiheng Hefeng solar farm,50,Solar,2016,46.3439,86.242
Tianjin Binhai New District Zhonghe Agriculture solar farm,20,Solar,2020,38.7513,117.1611
Shandong Kengli Yong'an (Yaoguang) solar farm,40,Solar,2019,37.5605,118.7267
Hebei Qinghe (Xusheng) Agriculture solar farm,280,Solar,2023,37.0261,115.5879
Hubei Chibi Chebu Fishery solar farm,120,Solar,2023,29.7747,113.7541
"Heilongjiang Province Anda Pastoral Farm Grid-Connected ""Unsubsidized"" solar farm",100,Solar,2020,46.2985,125.2529
Hunan Zixing Liyujiang Power Plant Huichang solar farm,60,Solar,2023,25.9792,113.2229
Mongla solar farm,100,Solar,2021,22.6501,89.7611
Singrauli solar farm,25,Solar,2022,24.1983,82.6573
Zhejiang Province Yuhuan Xuanmenwan Agriculture and Light Complementary solar farm,120,Solar,2016,28.1541,121.3237
Shaanxi Ansai Gaoqiao Agricultural solar power plant,200,Solar,2023,37.2969,108.4504
Chongqing Zhong Jidian solar farm,100,Solar,2017,30.351,107.754
Anhui Huainan Xiejiaji Wangfenggang Xinyi solar farm,20,Solar,2016,32.613,116.877
That solar farm,35,Solar,2015,26.832,71.812
Ningxia Lingwu Datang Angli solar farm,40,Solar,2012,38.1997,106.7184
Qinghai Province Hainanzhou Gonghe Huaneng Grid-Connected solar farm,20,Solar,2013,36.2017,100.604
Pasnoor solar farm,50,Solar,2017,16.837,78.956
Rojhani solar farm,27.8,Solar,2014,23.7001,75.927
Bagewadi solar farm,20,Solar,2018,14.5204,75.7224
Qinghai Province Golmud Guodian Grid-Connected solar farm,50,Solar,2016,36.3641,95.1128
Guangxi Chongzuo Xiangshui solar farm,150,Solar,2020,22.2659,107.1153
Shaanxi Chengcheng (Shaantou) solar farm,100,Solar,2023,35.1559,109.8564
Jiangxi Guixi Duimenling solar farm,50,Solar,2016,28.2277,117.2749
Xinjiang Yuepuhu Xinrong solar farm,20,Solar,2016,39.1559,77.0671
Marikal solar farm,20,Solar,2015,16.628,77.664
Hubei Xiangyang Xionghe Reservior solar farm,20,Solar,2016,31.903,112.6735
Anhui Lujiang Nihezhen Shenglicun solar farm,20,Solar,2016,31.0837,117.3172
Hubei Xiangzhou Huangji Agriculture solar farm,170,Solar,2023,32.2842,112.0143
Tianchu solar farm,50,Solar,2023,23.1118,120.1304
Shaanxi Yongshou (Datang) solar farm,100,Solar,2020,34.5495,108.0302
Yunnan Yunlong Fengdai Qingshuilang Mountain solar farm,200,Solar,2023,25.9312,99.5465
Shaanxi Qishan Caijiapo Changxing solar farm,20,Solar,2017,34.3228,107.5985
Kamalpur (Chattel) solar farm,25,Solar,2012,22.7217,71.6544
Anhui Huainan Xiejiaji solar farm,70,Solar,2017,32.5638,116.8463
Bách Khoa A Chua solar farm,30,Solar,2020,11.5548,106.2512
Hunan Yueyang Gangkouzhen Datangcun Agriculture solar farm,120,Solar,2023,29.1877,113.289
Inner Mongolia Zhalute Banner Huachun solar farm,100,Solar,2017,40.3746,111.3576
Henan Heshan Shengbu solar farm,100,Solar,2016,35.9739,114.1528
Hubei Zaoyang Qifang CNG solar farm,100,Solar,2019,32.1308,112.7666
Hubei Qichun Qizhouzhen (Qizhuo) Agriculture solar farm,99,Solar,2021,30.3213,115.5705
Ningxia Yinchuan Ningdong Shanghai Aerospace Machinery solar farm,50,Solar,2015,38.1713,106.7582
Softbank Kumamoto Arao Solar Park,22,Solar,2015,32.9979,130.4209
Henan Ruzhou GCL solar farm,80,Solar,2016,34.1057,112.7352
Shanxi Yangcheng Dongfeng solar farm,100,Solar,2022,35.4867,112.4089
Hebei Shunping Anyangxiang solar farm,200,Solar,2021,39.005,115.041
Wadgera solar farm,20,Solar,2017,16.608,77.019
Anhui Hefei Xinzhan District Yanhecun solar farm,20,Solar,2017,31.9421,117.3799
Inner Mongolia Holingol Holingol Industrial Park Xinsheng solar farm,20,Solar,2016,45.464,119.6162
Inner Mongolia Kailu Rongda Rooftop solar farm,50,Solar,2017,43.4493,121.5181
Hebei Quyang Beitaixiang solar farm,30,Solar,2016,38.6227,114.7529
Miyagi Osato Solar Park,27,Solar,2021,38.511,140.947
Xinjiang Bohu Zhaowa solar farm,20,Solar,2016,41.9798,86.6305
CS Tottori Daisencho Solar Power Plant,27,Solar,2017,35.4269,133.5335
Xinjiang Hutubi Load Management/Storage solar power plant,300,Solar,2023,44.1921,86.7962
Anhui Chaohu Bazhen CGN solar farm,20,Solar,2017,31.312,117.589
Solapur Netmagic solar farm,100,Solar,2019,17.672,76.371
Xinjiang Hami Xinte Liuquanshu Farm solar farm,20,Solar,2016,43.0475,92.8613
Zhejiang Yunhe Baoshan 'forestry-agricultural' Photovoltaic solar farm,30,Solar,2017,29.0001,120.0001
Jiangsu Rudong Juzhen (Huaneng) solar farm,200,Solar,2023,32.334,121.1803
Hubei Xiantao Chuneng solar farm,49,Solar,2019,30.3309,113.4369
Zhejiang Beilun (Guodian) solar farm,30,Solar,2020,29.9373,121.8048
Palaswade (Tata) II solar farm,30,Solar,2017,17.561,74.827
Xinjiang Wushi Huaneng solar power plant,100,Solar,2022,41.211,79.708
Qinghai Gonghe Zhong'an Yongtai solar farm,50,Solar,2016,36.2096,100.5985
Qinghai Province Golmud Longyuan Grid-Connected solar farm,20,Solar,2011,36.3366,95.2328
Wonho Lee Floating solar farm,43,Solar,2023,36.891,126.282
Jiangxi Duchang Jishanhu solar farm,40,Solar,2019,29.2752,116.1308
Hebei Province Lincheng Lijiacun solar farm,50,Solar,2015,37.458,114.308
Zhejiang Jiashan Fengling solar farm,35,Solar,2017,30.8921,120.8054
Anhui Yingdong Xinwujiangzhen Distributed solar farm,20,Solar,2017,32.875,116.143
Hong Phong 1 solar farm,150,Solar,2019,11.065,108.288
Shanxi Kelan Poverty Alleviation solar farm,20,Solar,2017,38.7336,111.4077
Hunan Taoyuan Fengshu Xiangcheng solar farm,20,Solar,2017,28.8896,111.2526
Gansu Province Gaotai Gaoyazitan Chint Grid-Connected solar farm,100,Solar,2013,39.283,99.527
Khánh Hòa AMI solar farm,50,Solar,2019,11.981,109.129
Shanxi Yuanping (Zhongxinbo) solar farm,100,Solar,2022,38.8821,112.7505
Guangdong Xuwen Jiaowei solar power plant,60,Solar,2017,20.289,109.952
Gansu Guazhou Weiwu Poverty Alleviation solar farm,80,Solar,2018,38.944,102.4667
Shanxi Pingshun Shunxin Poverty Alleviation solar farm,30,Solar,2018,36.2567,113.2696
Nirmal Acme solar farm,50,Solar,2017,19.133,78.242
Gansu Province Jinchuan Xipo Zhongxin Grid-Connected solar farm,100,Solar,2014,38.5714,102.1043
Bang Pa-In solar farm,38,Solar,2019,14.169,100.553
Henan Province Anyang Ecological Agriculture Greenhouse solar farm,100,Solar,2015,35.9958,114.9432
Pavagada (Fortum) solar farm,100,Solar,2017,14.2444,77.4607
Yunnan Yunxian Shimenkan solar farm,150,Solar,2023,24.5093,100.3032
Sprng Transform Sun Energy solar farm,100,Solar,2017,16.468,77.909
Shandong Mishan Star solar farm,20,Solar,2017,35.1306,117.5979
Shanxi Xiangning (China Resources) solar farm,100,Solar,2022,35.9681,110.8487
Shandong Zhangqiu Ningjiabu (Huadian) Agriculture solar farm,20,Solar,2023,36.8201,117.4363
Jilin Changling Changling Qiulin solar farm,20,Solar,2017,44.3438,123.5873
Pacifico Energy Mimasaka Musashi Mega-Solar Project,42,Solar,2016,35.0789,134.2688
Shajapur solar park,220,Solar,2023,23.418,76.2705
Shaanxi Dali Guoneng solar farm,20,Solar,2017,34.7925,109.9383
Gansu Huanxian Maojing (Huadian) solar farm,300,Solar,2023,36.463,106.6197
Gansu Suzhou District Dongdongtan Jinyige solar farm,20,Solar,2018,39.633,98.522
Gansu Province Jinchuan New Sunshine Grid-Connected solar farm,70,Solar,2014,38.4602,102.428
Shaanxi Fengxiang Fengming solar farm,20,Solar,2016,34.5233,107.392
Henan Lushan Malou Zhongmin Xinneng solar farm,20,Solar,2017,33.6801,112.9958
Hebei Nangong (Guolong) solar farm,170,Solar,2020,37.1718,115.6869
Qinghai Hainan 1000 MW Photovoltaic Base (Yellow River Upstream) solar power plant,500,Solar,2023,36.7228,99.7833
Lahboli A solar farm,20,Solar,2017,29.7531,77.8235
Yunnan Luquan Industrial Park solar farm,50,Solar,2016,25.8523,102.3506
Guizhou Yilongxinqu Santaipo Agriculture solar farm,50,Solar,2022,25.3881,105.3874
Guizhou Panzhou Haoheishan (Zhongdian) solar farm,50,Solar,2017,25.703,104.3699
Hubei Jianshi Gaoping Agrilculture solar farm,50,Solar,2023,30.6894,110.029
Hubei Macheng Tiemengang Gaotou solar farm,50,Solar,2017,31.0404,114.8496
Charanka (GMR) Solar Park,25,Solar,2012,23.9027,71.1935
Zhejiang Suzhou Yunyang New Energy solar farm,20,Solar,2015,33.6883,117.1596
Shaanxi Yuyang Xinjing solar farm,50,Solar,2019,38.229,109.2939
Xinjiang Bozhou Wenquan (Datang) solar farm,30,Solar,2020,45.0598,80.9985
Haechang Bay Floating Solar Power Plant,50,Solar,2023,34.5836,127.3713
Talwandi Sabo solar farm,38,Solar,2016,29.9838,75.0818
Qinghai Province Golmud Datang International solar farm,50,Solar,2016,36.3798,95.0911
Solaseado solar farm,25.4,Solar,2020,34.702,126.415
Mograle solar farm,50,Solar,2017,17.874,74.545
Hundupur Solar Park,40,Solar,2016,13.5996,78.5303
Jiangxi Poyang Youchengxiang Jingyang solar farm,80,Solar,2020,29.235,116.8357
Ningxia Wuzhong Taiyangshan Three Gorges solar farm,20,Solar,2014,37.5669,106.4301
Xinjiang Yuli Jiangyin Junxin solar farm,20,Solar,2014,40.6544,87.8061
Layla Solar PV Plant,10,Solar,2019,22.3302,46.6803
Currimao Solar Power Project,20,Solar,2016,18.051,120.4858
Xinjiang Corps Shihezi Eighth Division 72 MW Demonstration solar farm,72,Solar,2021,45.1807,85.0548
Hunan Loudi (Datang) Ecological Governance solar project,500,Solar,2023,27.697,111.9963
Hebei Lingshou (Huantai Energy) solar farm,35,Solar,2020,38.3068,114.3777
Devikot solar farm,240,Solar,2022,26.6849,71.2351
Guangxi Fuchuan Longwan Agriculture solar farm,60,Solar,2021,24.9901,111.3998
Gansu Dunhuang Qili Asia New Energy solar farm,20,Solar,2014,40.0862,94.4791
Zhejiang Qujiang Nianli Guangsheng solar farm,46,Solar,2015,28.8823,118.7819
Solarnova solar farm,76,Solar,2021,1.3571,103.8195
Jiangxi Haidong Yeping solar farm,30,Solar,2019,25.9045,116.0754
Mộ Đức solar farm,24,Solar,2019,14.9584,108.9346
Heilongjiang Daqing Lindian (Huaneng) solar farm,100,Solar,2021,47.1831,124.8695
Yuqorichirchiq (China Gezhouba) solar farm,100,Solar,2023,41.1908,69.5261
Hubei Chongyang Tiancheng Forestry solar farm,30,Solar,2023,29.5693,114.0277
Parbhani (Essel) I solar farm,40,Solar,2019,19.2903,76.6029
Guizhou Pu'an Xindian Yaoshang solar farm,50,Solar,2020,25.5098,105.0064
Xuân Thọ solar farm,50,Solar,2019,13.378,109.175
Guangdong Pingyuan Renjuzhen (Guangdong Yudean) solar farm,400,Solar,2022,24.6606,115.9101
Gansu Province Liangzhou CECEP Grid-Connected solar farm,30,Solar,2012,38.1033,102.3065
Xinjiang Yecheng Ruicheng solar farm,20,Solar,2018,37.4191,77.4309
Qinghai Province Golmud Beikong Grid-Connected solar farm,20,Solar,2012,36.3789,95.1575
Zhejiang Quzhou Shilifeng Farm solar farm,45,Solar,2015,29.0925,119.0522
Shanxi Hunyuan Xiliu Poverty Alleviation solar farm,20,Solar,2017,39.6935,113.6954
Xinjiang Bazhou Ruoqiang Haiwei Grid-Connected solar farm,30,Solar,2016,38.9456,88.1956
Shanxi Province Shuozhou Youyu solar farm,50,Solar,2015,40.0101,112.594
Zhejiang Wenling Tide-Light Complementary Intelligent solar farm,100,Solar,2022,28.6582,121.4164
Sichuan Liangshan Huidong Huiming solar farm,30,Solar,2017,26.5616,102.4659
Gansu Baiyin Shenbu Copper Mine Tailings solar farm,100,Solar,2023,36.779,104.106
Shaanxi Qishan Changneng solar farm,20,Solar,2017,34.3126,107.6184
Hebei Province Zhangbei Hailiutu solar farm,20,Solar,2016,41.247,114.548
Guizhou Xingyi Qingshuihe (Xingdian) solar farm,100,Solar,2020,25.264,104.853
Guangdong Province Huizhou Bolo Guanyinge Township solar farm,100,Solar,2021,23.3985,114.5985
Shandong Jining Yaosheng solar farm,20,Solar,2016,35.0023,116.3801
Qinghai Haixi Wutumeiren (Gangqing) solar farm,50,Solar,2021,36.9107,93.163
Bataan Solar Power Project,34,Solar,2022,14.8302,120.5086
SF Akaiwa solar power plant,58,Solar,2021,34.8271,133.9936
Qinghai Province Golmud Huaneng Grid-Connected solar farm,20,Solar,2012,36.3765,95.1371
Guangdong Taishan Modern Fishery Park (Tongwei) solar farm,25,Solar,2017,21.825,112.4728
Guangdong Renhua Dongtang (Datang) Agriculture solar farm,75,Solar,2022,25.0631,113.6119
Shaanxi Shangzhou (Shaanxi Investment) solar farm,100,Solar,2023,33.9106,109.7155
Inner Mongolia Alashan Chenghui solar farm,50,Solar,2015,38.8861,105.6461
Gansu Province Jinchuan District Xipo Sinohydro Grid-Connected solar farm,50,Solar,2016,38.5814,102.1368
Inner Mongolia Chifeng Jianchangying Mengneng solar farm,20,Solar,2015,42.3571,119.2712
Xinjiang Wujiaqu 102nd Brigade Puxin Chengda solar farm,20,Solar,2015,44.4035,87.6517
Ningxia Tongxin CNNC solar farm,100,Solar,2019,37.1552,105.8437
Wadgera HFE solar farm,20,Solar,2017,16.564,77.07
Shaanxi Tongguan Qindong solar power plant,200,Solar,2023,34.5712,110.209
Jodhpur Manufacturing (Azure Power) solar farm,333,Solar,2023,27.372,72.359
Guangdong Huaiji Lengkeng Agriculture solar farm,100,Solar,2023,23.9966,112.0583
Qinghai Province Gonghe Zhongli Talesun solar farm,50,Solar,2015,36.1875,100.5735
Xinjiang Jimsar Xinfeng solar farm,20,Solar,2016,44.0944,88.8619
Clark (Enfinity) Solar Power Project,22,Solar,2016,15.2439,120.5336
Guizhou Libo Jialiang (CECEP) solar farm,200,Solar,2023,25.5704,107.7251
Sala Lamduan A solar farm,45,Solar,2016,13.908,101.928
Gansu Province Wuwei Hongshagang CECEP Grid-Connected solar farm,30,Solar,2015,38.9823,102.4806
Mandsaur (Virescent) I solar farm,22,Solar,2015,24.048,75.347
Jilin Province Baicheng Front Runner solar farm,100,Solar,2018,45.8803,123.002
Batang Ai floating solar farm,50,Solar,2023,1.2134,111.6726
"Shaanxi Tongchuan ""Front Runner"" Tianxing solar farm",250,Solar,2019,35.399,109.1169
Rona OPG solar farm,20,Solar,2018,15.787,75.754
Tibet Qushui Zhuri solar farm,20,Solar,2018,29.3571,90.7478
Yunnan Yongsheng Lantianpo solar farm,100,Solar,2023,26.4355,101.0005
Anhui Fengyuan Banqiaozhen Zhetang solar farm,20,Solar,2017,32.7777,117.6071
Qinghai Gonghe Talatan (Datang) solar farm,100,Solar,2021,36.1907,100.5422
Guizhou Xingyi Qingshuihe (Zhonghong) solar farm,70,Solar,2016,25.32,104.855
Eida Hikari Solar Power Plant,37,Solar,2021,34.9561,134.1167
Hiriyur solar farm,20,Solar,2017,13.9443,76.6167
Inner Mongolia Chifeng Linxi County Zhongneng solar farm,40,Solar,2017,43.6174,118.0557
Xinjiang Wushi Jinhua solar farm,20,Solar,2016,41.2126,79.7085
Xinjiang Akesu Keping SPIC solar farm,20,Solar,2013,40.5834,79.6158
Hong Phong 4 solar farm,48,Solar,2021,11.2637,108.3599
Qinghai Province Hainanzhou Gonghe Guangke Grid-Connected solar farm,30,Solar,2014,36.2017,100.604
Xinjiang Hetian Zhongdiantou Grid-Connected solar farm,20,Solar,2013,37.0231,79.7824
Hebei Lingshou (Guoxin) solar farm,100,Solar,2021,38.3087,114.3834
Hebei Handan Shexian Hanneng solar farm,20,Solar,2015,36.6501,113.8882
Inner Mongolia Zhalute Banner Zhahanaoer solar farm,50,Solar,2016,44.5562,120.9115
Hunan Hengdong Chashizhen (Datang) solar farm,50,Solar,2022,26.762,112.7589
Hubei Xiantao Xiliuhe Fishery solar farm,100,Solar,2022,30.2881,113.661
Qinghai Golmud Guangke solar farm,20,Solar,2017,36.3829,94.9061
Inner Mongolia Etuoke Banner solar and storage project,100,Solar,2023,38.7662,108.2371
Inner Mongolia Xinghe Povery Alleviation solar farm,50.9,Solar,2019,40.6307,113.8603
Jiangsu Fengxian Yaohui Photovoltaic solar farm,40,Solar,2017,33.0001,120.0001
Liaoning Yi Jiayu solar farm,24,Solar,2017,41.7008,121.1919
Jiangsu Danyang Yanlingzhen (Weirui) Fishery solar farm,80,Solar,2021,32.011,119.6013
Hebei Zanhuang (Guoshun) solar farm,150,Solar,2020,37.7449,114.3336
Digsar solar farm,30,Solar,2019,22.725,71.442
Jiangxi Pingxiang Gaokeng solar farm,20,Solar,2016,27.6209,113.948
"Gansu Wuwei Liangzhou ""Solid-State"" Desert Control Demonstration solar power plant",200,Solar,2023,38.0547,103.1811
Zhejiang Longyou Xiaokang Kangxian Photovoltaic solar farm,30,Solar,2017,29.0001,120.0001
Zhejiang Province Yuhuan Xuanmenwan Agriculture and Light Complementary solar farm,80,Solar,2016,28.1541,121.3237
TS Minpoor solar farm,65,Solar,2017,17.7265,78.0066
Fukuroda Solar Power Plant,32,Solar,2015,36.8113,140.436
Henan Province Shangshui Xiexin Agriculture and Light Complementary solar farm,100,Solar,2018,33.5997,114.3408
Shanxi Province Xinrong District Datang solar farm,600,Solar,2021,40.1763,113.1635
Hebei Province Guyuan Gaoshanbu solar farm,24,Solar,2015,41.7158,115.4983
Shanxi Youyu Yangqianhe solar farm,35,Solar,2017,40.069,112.2814
Shaanxi Chengcheng Qinyang solar power plant,100,Solar,2023,35.8894,109.1357
Shanxi Shanyin Guchengzhen solar farm,80,Solar,2019,39.4386,112.901
Jiangsu Guanyun Nangang Agriculture solar farm,98,Solar,2020,34.297,119.248
Fukushima Hydrogen Energy Research Field solar farm,20,Solar,2020,37.51,141.0336
Henan Baofeng Xintai solar farm,100,Solar,2017,34.0001,114.0001
Henan Ruzhou Lingtou solar farm,32,Solar,2016,34.2737,112.8329
Guizhou Shiqian Dingdongpo Wind And solar farm,40,Solar,2023,27.6471,108.1436
Shanxi Ruicheng Ningsheng solar farm,150,Solar,2020,34.7507,110.8678
Tịnh Biên Sao Mai solar farm,104,Solar,2019,10.4701,105.011
Thịnh Long solar farm,50,Solar,2019,13.001,109.093
Amguri solar farm,70,Solar,2022,26.817,94.556
Heilongjiang Tailai Haoxin Photovoltaic solar farm,24,Solar,2018,46.279,123.603
Xinjiang Bozhou Wenquan Guosheng Grid-Connected solar farm,30,Solar,2014,44.9311,81.2895
Shanxi Province Yuxian Niucunzhen solar farm,50,Solar,2015,38.093,113.5222
Inner Mongolia Qahar Right Rear Banner Xile Datang solar farm,20,Solar,2015,41.2754,112.9324
Guangxi Tianyang District Ecological Township solar Photovoltaic project,100,Solar,2023,23.7435,106.9218
Gansu Province Hongshagang Chint Grid-Connected solar farm,50,Solar,2013,38.981,102.5198
Anhui Jinzhai Louchongcun agricultural Photovoltaic solar farm,30,Solar,2017,32.0001,117.0001
Shanxi Shouyang Jingshang solar farm,30,Solar,2017,37.7316,113.2237
Ningxia Yanchi Huaqin solar farm,20,Solar,2017,37.8263,107.5097
Rajasthan 3 solar farm,43,Solar,2015,26.6345,73.9344
Liaoning Lingyuan Dangzhangzi solar farm,20,Solar,2022,40.8401,119.4006
Guizhou Zhenfeng Xiabuke Xingyuan solar farm,30,Solar,2018,25.5804,105.5756
Shanxi Youyu Huayi Zhongtai solar farm,20,Solar,2017,40.0022,112.601
Shanxi Lingshi Yuqing Mined-Out Area solar power plant,100,Solar,2023,36.8519,111.7793
Xinjiang Bazhou Luntai CECEP Grid-Connected solar farm,20,Solar,2013,41.8818,83.986
Guizhou Pu'an Louxia (Zhonghong) solar farm,35,Solar,2017,25.348,104.935
Xinjiang Shanshan Tuha Oifiled Source/Grid/Load/Storage solar farm,120,Solar,2023,43.117,90.728
Inner Mongolia Wulanmulun Guodiantou solar farm,100,Solar,2021,39.286,110.1789
Kamuthi (Adani) solar farm,72,Solar,2016,9.3457,78.3939
ECO Seido solar farm,40,Solar,2019,11.2311,108.6784
Shandong Shanting Beizhuang Guangyang solar farm,20,Solar,2014,35.1008,117.4576
Xinjiang Kezhou Artux Huaguang Grid-Connected solar farm,30,Solar,2015,39.7605,75.8992
Hubei Gongan County Shizikou Agricultural solar power plant,150,Solar,2022,31.1531,112.8806
Varisam solar farm,30,Solar,2017,18.141,83.651
Zhejiang Lanxi Lüneng Photovoltaic solar farm,20,Solar,2017,29.0001,120.0001
Oya A solar farm,60.5,Solar,2019,36.309,138.937
Mahbubnagar (Renew) solar farm,100,Solar,2016,16.529,77.903
Ananthapuramu (Sprng) Ultra Mega Solar Park,54,Solar,2020,14.0321,78.4357
Gansu Dunhuang Anji solar farm,20,Solar,2017,40.1434,94.6602
Jiangxi Wannian Huyun Shangcheng solar farm,35,Solar,2017,28.7936,116.8294
Bhanvad A solar farm,20,Solar,2022,22.014,69.865
Dau Tieng 3 solar farm,60,Solar,2019,11.4804,106.1793
Jiangsu Changzhou Yijing Photovoltaic solar farm,20,Solar,2017,33.0001,120.0001
Hainan Wenchang Hualin Fishery solar farm,100,Solar,2021,19.6807,110.8899
Guizhou Panzhou Pannan Power Plant Ash Yard solar farm,30,Solar,2019,25.472,104.557
Siddipet (Skypower) solar farm,50,Solar,2017,18.225,78.995
Daito Solar Power Plant,42,Solar,2022,38.9338,141.2166
Veltoor solar farm,100,Solar,2018,16.445,77.867
Guangdong Lufeng Qiaochongzhen Fishery solar farm,100,Solar,2022,22.9281,115.7415
Inner Mongolia Hohhot Tuoketuo County solar farm,100,Solar,2014,40.3751,111.3563
Hubei Yingshan Shitouzui Agriculture solar farm,50,Solar,2022,30.9881,115.7665
Hubei Laohekou Zhangjizhen (Xinyi) Agriculture solar farm,100,Solar,2020,32.4363,111.7564
Indi Essel solar farm,20,Solar,2018,17.024,75.827
Mukim Bebar solar farm,50,Solar,2023,3.7224,103.1229
Ningxia Zhongwei Changhe solar farm,20,Solar,2013,37.5628,105.0347
Sichuan Ganzi Xingchuan (SPIC) solar farm,600,Solar,2022,29.1341,99.5525
Anhui Yingshang Jiaoganghu (Beikong) solar farm,20,Solar,2016,32.5841,116.6419
Xinjiang Keping Tianhua solar farm,20,Solar,2016,40.5783,79.6225
Guangxi Beihai Hepu Xingdaohu Agricultural solar power plant,20,Solar,2017,21.7204,109.1337
Parbhani (Essel) II solar farm,20,Solar,2019,19.2903,76.6029
Guangxi Guilin Yongfu Power Plant solar farm,45,Solar,2022,25.0816,110.0785
Inner Mongolia Hanggin Banner Xini Hangjinqi solar farm,50,Solar,2014,39.8204,109.9529
Sichuan Yajiang County solar power plant,500,Solar,2023,29.8394,101.305
Yunnan Yaoan Mixing solar farm,130,Solar,2023,25.3736,101.1341
Karapınar Yeka-1 solar farm,271,Solar,2021,37.756,33.5599
Yunnan Province Binchuan Xicun Grid-Connected solar farm,50,Solar,2014,25.7661,100.3927
Heilongjiang Daqing Jingneng solar farm,20,Solar,2017,46.7604,124.7953
Sichuan Lianghekou Hydro/Photovoltaic Integtrated solar power plant,1000,Solar,2023,35.8894,109.1357
Tirunelveli Atha A solar farm,100,Solar,2019,8.933,77.838
Guangxi Hepu Xinyi Acquatic solar power plant,100,Solar,2022,21.6337,108.9652
Sungai Petani solar farm,29,Solar,2018,5.6135,100.4524
Inner Mongolia Horqin Left Middle Banner Xinsheng solar farm,50,Solar,2015,43.9772,121.8412
Sadashivpet (ACME) solar farm,50,Solar,2017,17.6167,77.9501
Pamidi solar farm,50,Solar,2014,13.5996,78.5303
Yunnan Qiaojia Yaoshan Xiaopingzi solar farm,30,Solar,2023,27.0556,103.0775
Zhejiang Jiashan South Taozhuangzhen Xiamudang fisheries Photovoltaic solar farm,35,Solar,2017,29.0001,120.0001
Hubei Luotian Luotuoaozhen (Tibet Trina) solar farm,100,Solar,2021,30.9608,115.4683
Henan Jiaozuo Macunqu Agricultural Science and Technology Greenhouse solar farm,50,Solar,2016,35.3047,113.3909
Inner Mongolia Wulanbuhe Desert Jinyuan solar farm,100,Solar,2023,39.6923,106.7614
Xinjiang Hami CGN solar farm,20,Solar,2011,44.7063,94.0963
Inner Mongolia Wulate Front Banner Xiehe solar farm,20,Solar,2014,40.8578,108.9198
Guizhou Babuzhen Tongjing Agriculture solar farm,80,Solar,2020,26.823,105.799
Guangdong Kaiping Xiangangzhen (Jingke) Agriculture solar farm,100,Solar,2021,22.2484,112.5217
Guangdong Ruyuan Yueyang Agriculture solar farm,21,Solar,2020,24.5078,113.1091
Takahagi Arakawa Solar Power Plant,25,Solar,2018,36.7026,140.7134
Maranthai - Pudur solar farm,100,Solar,2019,8.8493,77.5864
Bhadla (Charisma) Solar Park,70,Solar,2017,27.489,71.958
Bulacansol solar farm,50,Solar,2021,15.138,120.999
Wakayama Mega-Solar Project,111,Solar,2022,33.731,135.464
"Jiangxi Province Shangrao Yugan""Front Runner"" solar farm",250,Solar,2019,28.7828,116.4029
Yunnan Xiangyun Xionglipo (Huaneng) solar farm,100,Solar,2023,25.2378,100.8038
Xinjiang Changji Mulei Tebian Grid-Connected solar farm,20,Solar,2016,43.8363,90.2888
Jilin Province Baicheng Front Runner solar farm,100,Solar,2020,44.914,123.1035
Xinjiang Turpan Shanshan Zhongdiantou Grid-Connected solar farm,20,Solar,2013,42.2914,90.6423
"Jiangsu Dantu ""fisheries"" Photovoltaic solar power plant",60,Solar,2020,33.0001,120.0001
Nishinosata Solar Park,44,Solar,2020,37.1499,140.0718
Guangdong Boluo Taimei solar farm,100,Solar,2023,23.279,114.141
Jiangsu Taizhou Herun solar farm,20,Solar,2016,33.0001,120.0001
Chikkoppa Karnataka 1 solar farm,40,Solar,2018,15.6526,75.992
Anhui Province Liu'an Jinzhai Baitafan solar farm,100,Solar,2017,31.7207,116.0653
Ningxia Zhongwei Yinyang Agricultural solar farm,50,Solar,2015,37.5562,105.0657
Ningxia Taiyangshan (Ningxia Power Investment) solar farm,100,Solar,2020,37.428,106.5877
Hubei Province Jingzhou Jianli Huanghu Fishing and Light Complementary solar farm,100,Solar,2019,30.0772,112.8823
Anhui Hefei Jingshang Commercial City Distributed solar farm,30,Solar,2015,31.9421,117.3718
"Jiangsu Province Baoying ""Front Runner"" Sheyanghu 1 solar farm",60,Solar,2019,33.282,119.6859
Hunan Shimen Xinpu Wuling solar farm,20,Solar,2017,29.8036,111.1225
Sanwreej JWE solar farm,20,Solar,2017,26.983,72.259
Xinjiang Aksu Datang solar farm,20,Solar,2014,41.1158,80.218
Shaanxi Province Dingbian Huanghe solar farm,50,Solar,2015,37.6473,107.6004
Rewa Ultra Mega Solar Power Project,250,Solar,2018,24.4771,81.5601
Hebei Shexian Jingdian Guoyuan solar farm,50,Solar,2016,36.6295,113.687
Xinjiang Huadian Shanshan solar farm,90,Solar,2020,42.874,90.2035
Shiroishi solar farm,28,Solar,2019,38.3595,140.8881
Lingadalli solar farm,40,Solar,2017,17.509,76.994
Xinjiang Akesu Rongchuang Grid-Connected solar farm,30,Solar,2014,41.0461,80.1069
Chongqing Chengkou Xianyizhen (CGN) solar farm,30,Solar,2020,31.7457,108.6914
Guizhou Xiuwen Gubao solar farm,100,Solar,2023,26.9351,106.5304
Minamisoma Haramachi Higashi Solar Power Plant,32,Solar,2019,37.635,141.018
Amphur Banglen solar farm,60,Solar,2016,13.975,100.183
Xinjiang Jimsar (China Energy Conservation) Pastoral solar power plant,120,Solar,2023,44.0421,89.0275
Sơn Mỹ solar farm,50,Solar,2019,10.6587,107.6686
Yunnan Qilin Ciying Guanqiying Agriculture solar farm,100,Solar,2023,25.3733,103.9008
Hebei Laiyuan Yanmeidong Lijiazhuang solar farm,20,Solar,2017,39.5105,114.8714
Gansu Province Yongchang Zhengtai Grid-Conneted solar farm,100,Solar,2013,38.3193,102.2075
Shanxi Fenyang CECEP solar farm,50,Solar,2014,37.2927,111.8242
Ube City solar farm,21,Solar,2014,33.9531,131.2213
Qinghai Golmud Sunshine Qiheng solar farm,30,Solar,2016,36.3927,95.0926
Shanxi Linfen Guxian Jiasheng solar farm,30,Solar,2016,36.2666,111.922
Xinjiang Akesu Keping SPIC solar farm,20,Solar,2016,44.7063,94.0963
Jaisalmer (Adani) II Solar Hybrid Farm,600,Solar,2022,26.881,71.498
Yunnan Dayao Shibanqing solar farm,200,Solar,2022,25.8184,101.4921
Yunnan Shidian Zhong solar farm,100,Solar,2023,24.6916,99.1279
Xinjiang Lop (China Guangdong Nuclear) solar form,1000,Solar,2023,36.976,80.069
Shaanxi Yuyang Mengjiawan Huaneng solar power plant,150,Solar,2023,38.2769,109.7155
Shandong Rizhao Juxian Kushanxiang solar farm,40,Solar,2016,35.8901,118.9621
Xinjiang Manas Tianfu solar farm,20,Solar,2015,44.2898,86.2101
Yunnan Mouding Youjia Agriculture solar farm,20,Solar,2016,25.3249,101.5897
Jiangsu Suining Atesi agricultural Photovoltaic solar farm,30,Solar,2017,33.8964,117.9453
Jewala solar farm,102,Solar,2021,29.9881,77.5081
Shanxi Ruicheng Monan (Beijing Fortune) solar farm,20,Solar,2020,34.757,110.8789
Mandsaur 3 solar farm,50,Solar,2017,24.088,75.799
Xinjiang Bayingolin Guangrun solar farm,20,Solar,2014,40.6544,87.8061
Qinghai Province Dachaidan Xitieshan CGN Grid-Connected solar farm,60,Solar,2011,37.2987,95.4649
Bugallon II solar farm,21,Solar,2023,15.9604,120.0449
Gansu Province Jinchuan Dongdatan Jintai Grid-Connected solar farm,200,Solar,2013,38.5035,102.3274
Inner Mongolia Xing'an Keerqinyouyiqian Banner Jiehe Forestry solar farm,50,Solar,2015,46.5302,121.3091
Hubei Yingcheng Chengbei (Youtai) Fishery solar farm,80,Solar,2021,30.9889,113.5131
Shanxi Yangcheng Ciying solar farm,100,Solar,2022,35.4867,112.4089
Jiangxi Province Jiujiang Jinko solar farm,70,Solar,2016,29.7024,115.7691
"Shanxi Ruicheng ""Front Runner"" Xiepo solar farm",50,Solar,2017,34.6747,110.5801
Sichuan Hongyuan Ruoxian solar farm,20,Solar,2018,34.009,102.0541
Rangareddy solar farm,30,Solar,2016,17.364,77.542
Trúc Sơn solar farm,44,Solar,2019,12.5901,107.926
Hebei Wuyi Xinyang solar farm,30,Solar,2017,37.9317,115.9622
Guangxi Hepu Baisha (Xinyi) Fishery solar farm,40,Solar,2020,21.7013,109.6891
Qinghai Haixi (Luneng) Wutumeiren 200 MW solar power plant,200,Solar,2020,36.7398,93.5424
Shaanxi Shenmu Jingpu Distributed solar farm,20,Solar,2016,38.8421,110.4981
Pursat solar farm,60,Solar,2020,12.5287,104.2101
Yuzu Kamikita solar farm,23,Solar,2023,36.8297,140.0979
Bangarpet solar farm,20,Solar,2019,12.96,78.359
Jiangsu Sheyang Jiyang solar farm,30,Solar,2012,33.7713,120.2531
Europlast Long An Solar Power Plant,50,Solar,2019,10.9242,106.2727
Ningxia Lingwu (Guoben) solar farm,20,Solar,2023,37.7954,106.8002
Shaanxi Heyang County Tongjiazhuang Distributed solar power plant,20,Solar,2023,35.8894,109.1357
Hebei Pingshan Gangnan Hongrun solar farm,30,Solar,2015,38.3832,114.025
Yunnan Xuanwei Reshui solar farm,150,Solar,2023,26.0883,103.8597
Qinghai Province Gonghe Zhongli Talesun solar farm,50,Solar,2014,36.1875,100.5735
Hubei Hanchuan Nanhexiang (Guodian) Fishery solar farm,100,Solar,2022,30.6563,113.833
Liaoning Jianchang Bashihan Yushudi solar farm,20,Solar,2017,40.7558,120.0327
Jiangsu Pukou Xingdian GCL solar farm,20,Solar,2017,31.9611,118.4053
Shandong Shouguang Houzhen (Guoyang) solar farm,250,Solar,2023,36.9921,118.9651
Bhadla (SB Energy) Solar Park,600,Solar,2020,27.5182,71.9306
Shandong Zoucheng Guoli Huahan solar farm,20,Solar,2012,35.2184,116.8173
Hebei Yutian Tangzitou (Hengtai) solar farm,30,Solar,2021,39.9489,117.6806
Guizhou Xingyi Wushazhen Niubangzi Forestry solar farm,50,Solar,2020,25.14,104.825
Shaanxi Shenfu - South Hebei Power Export Fugu (Three Gorges) solar farm,250,Solar,2023,39.1375,110.8987
Hainan Lingao Duowen Town solar farm,30,Solar,2022,19.7743,109.771
Guangxi Xingbin District Xiaopingyang Agriculture solar farm,115,Solar,2023,23.4124,109.1668
Shaanxi Province Yuyang Jiangshan Yongchen solar farm,300,Solar,2017,38.8032,109.6794
Hulgera 28 solar farm,28,Solar,2018,15.963,76.073
Hunan Hanshou Poverty Alleviation solar farm,20,Solar,2018,28.9037,111.9783
Inner Mongolia Tumute Left Banner (Nailun) solar farm,65,Solar,2014,40.7339,111.1574
Yunnan Nanhua Lvhe Coal Mine solar farm,50.4,Solar,2023,25.1913,101.2742
Inner Mongolia Damao Banner Bayin Huadian solar farm,20,Solar,2016,41.6541,109.888
Hubei Macheng Songbu Jindi solar farm,40,Solar,2016,31.074,114.803
Durga PSEPL solar farm,100,Solar,2018,20.4881,81.0877
Hebei Renxian Datun solar farm,40,Solar,2016,37.2101,114.7131
Henan Tangyin Wuling (Aikang) solar farm,20,Solar,2016,35.8497,114.5858
Bukit Selambau solar farm,50,Solar,2023,5.683,100.6345
Inner Mongolia Damao Banner Aodu solar farm,100,Solar,2022,41.6864,110.4217
Shandong China Energy Conservation and Environmental Protection Group Xintai solar farm,20,Solar,2015,35.9305,117.6187
Punjab (Adani) solar farm,20,Solar,2021,30.8831,75.4066
Madhya Pradesh I solar farm,200,Solar,2023,23.2274,76.2154
Payagpur solar farm,28,Solar,2021,27.331,81.751
Hubei Shayang Jinfu solar farm,55,Solar,2019,30.7118,112.5832
Thuận Nam (Trung Nam) solar farm,450,Solar,2020,11.441,108.844
Guangdong Sihui Hualong Fishery solar farm,200,Solar,2023,23.3684,112.7051
Shaanxi Fengxiang (Datang) solar project,50,Solar,2022,34.5393,107.2254
Xinjiang Turpan Qiquanhu Zhongli Tenghui solar farm,20,Solar,2014,43.1196,89.3573
Dầu Tiếng 5 solar farm,225,Solar,2023,11.4878,106.2356
Shandong Juancheng Shangxin solar farm,20,Solar,2017,35.4219,115.6028
Cat Hiep solar farm,50,Solar,2019,14.0101,109.015
Smart Solar Wakayama Shirahama Solar Power Plant,32,Solar,2020,33.9298,135.4483
Guangdong Tianmen Yuxin Zhuiri solar farm,20,Solar,2017,30.6757,112.9905
Yunnan Simao Dadi solar farm,100,Solar,2022,22.8956,100.7633
Ningxia Zhongwei Shapotou Hengji Weiye solar farm,20,Solar,2014,37.5783,105.0471
Shanxi Province Datong Gaoshanzhen solar project,100,Solar,2018,40.0755,112.9771
Shanxi Zuoquan Zoucheng Zhaiwei solar power plant,50,Solar,2022,37.0806,113.3816
Inner Mongolia Darhan Muminggan United Banner Bailingmiao SPIC solar farm,20,Solar,2013,41.7005,110.4347
Honnali solar farm,20,Solar,2017,14.223,75.558
Thiên Tân 1.4 solar power project,100,Solar,2022,11.601,108.801
Trichy solar farm,100,Solar,2016,11.066,78.491
Gubbi solar farm,20,Solar,2018,13.3086,76.9382
Rawra solar farm,30,Solar,2013,27.4037,72.1623
SGET Otawara Mega Solar,25,Solar,2021,36.9196,140.1676
Gansu Dunhuang (Lanzhou Dacheng) solar farm,50,Solar,2019,40.0832,94.423
Babaleshwar solar farm,20,Solar,2017,16.654,75.439
Inner Mongolia Naiman Banner Huite solar farm,30,Solar,2016,42.8682,120.6572
Sichuan Huidong Haiba Xinneng solar farm,30,Solar,2015,26.5765,102.7016
"Cavite Special Economic Zone Solar Power Project,,.1Solar,2015,14.417,120.875
Guangdong Shixing Mashi (Ming Yang) solar farm,60,Solar,2023,25.0673,114.1422
Pulau Burung solar farm,20,Solar,2018,5.196,100.4285
Guangdong Suixi Yangqing Tuanjiecun Agriculture solar farm,50,Solar,2016,21.3579,110.0626
Qinghai Golmud Huazhi solar farm,20,Solar,2017,36.3798,95.0911
"Shandong Province Jining Weishan Huanchengzhen Huaneng "" Front Runner"" solar farm",100,Solar,2018,34.8415,117.2082
Heilongjiang Gannan Longyang solar farm,20,Solar,2016,47.863,123.478
Ningxia Yudingxiang Jinshacun solar farm,150,Solar,2023,37.5135,105.5646
Saijo Komatsu Solar Power Station,34,Solar,2015,33.9429,133.1122
Xinjiang Yizhou Hengxin solar farm,20,Solar,2015,42.359,93.4493
Uppara Hosahalli A solar farm,24,Solar,2018,15.518,76.917
Gansu Gaotai Gaoyazitan (Gaotai Quantong) solar farm,50,Solar,2022,39.3768,99.8195
Sundarganj solar farm,275,Solar,2023,25.5662,89.5174
Guangdong Yangshan Xiaojiang (Three Gorges) solar farm,50,Solar,2023,24.5907,112.6344
Shanxi Datong Xinrong Huarun solar farm,50,Solar,2016,40.2569,113.1285
Qigu Jhih Guang solar farm,35,Solar,2023,23.0927,120.1232
Rewa Ultra Mega Solar Power Project,250,Solar,2018,24.4796,81.5613
Mandamarri (Renew) solar farm,48,Solar,2017,18.985,79.446
Hebei Cangxian (Xingtu) solar farm,80,Solar,2021,38.3738,116.6324
Softbank Tomatoh Abira Solar Park,111,Solar,2015,42.7217,141.7931
Hubei Dawu Fangfan Green Energy solar farm,90,Solar,2017,31.3876,114.1047
Shandong Province Dezhou Dingzhuang solar farm,100,Solar,2021,37.3295,116.4641
Hebei Tangshan Huilian solar farm,20,Solar,2016,39.6407,117.914
Hunan Linxiang Mingyu solar farm,20,Solar,2016,29.477,113.4454
Shanxi Ruicheng Monanzhen Huaneng solar farm,150,Solar,2019,34.7509,110.8675
Shanxi Province Jinzhong Shouyang Area 1 solar farm,100,Solar,2018,37.7308,113.2198
Phước Hữu solar farm,50,Solar,2019,11.509,108.848
Inner Mongolia Alashan Bayanhaote solar farm,50,Solar,2016,38.8072,105.6601
Danau Tok Uban (Cypark) solar farm,30,Solar,2022,6.1646,102.2829
Guangdong Province Yangjiang Saltfield Salt and Light Complementary solar farm,100,Solar,2017,21.573,111.521
Heilongjiang Anda Huarun solar farm,40,Solar,2018,46.4114,125.3286
Inner Mongolia Wengniuteqi Xinlongdi Village solar farm,40,Solar,2019,42.9364,118.9238
Zhejiang Suichang County Yunfeng Xiaokang Photovoltaic solar farm,32,Solar,2018,29.0001,120.0001
Hunan Huarong Wanyu Jingsheng solar farm,20,Solar,2017,29.573,112.508
Amazon solar farm (Japan),22,Solar,2023,36.3275,139.3731
Inner Mongolia Urad Rear Banner Huadian solar farm,30,Solar,2015,41.6046,106.4544
Sichuan Yanyuan Tangniwan Fengguang solar farm,20,Solar,2015,27.5733,101.4061
Xinjiang Turpan Shanshan Hailin Grid-Connected solar farm,50,Solar,2014,42.2914,90.6423
Yunnan Shizong (Three Gorges) solar farm,350,Solar,2023,24.8348,103.9751
Pacifico Energy Iwaki Mega-Solar Project,42,Solar,2020,37.0205,140.7206
Xinjiang Hetian Zhongdiantou Grid-Connected solar farm,20,Solar,2014,37.0231,79.7824
Hubei Macheng Fuzihe solar farm,20,Solar,2017,31.1751,115.0084
Inner Mongolia Tongliao Dalinzhen 11 solar farm,20,Solar,2017,43.7259,122.8255
Minpur solar farm,65,Solar,2017,17.961,78.055
Shanxi Lianyuan Desertification Area solar project,37.8,Solar,2022,27.7286,111.7022
Qinghai Golmud Luneng solar farm,50,Solar,2019,36.3798,95.0911
Lucky Cement solar farm,25,Solar,2023,25.0557,67.4998
Xinjiang Hami Shichengzi Atesi solar farm,20,Solar,2016,43.0335,93.5884
Phước Hữu - Điện Lực solar farm,30,Solar,2019,11.501,108.843
Hebei Xuanhua Shenjing SPIC solar farm,30,Solar,2016,40.424,114.815
Bp Solar 1 solar farm,49,Solar,2019,11.532,108.877
Xinjiang Mori Huadian solar farm,20,Solar,2013,43.8318,90.2871
Jiangsu Yancheng Qianneng solar farm,20,Solar,2017,33.7765,120.2562
Hebei Huanghua Lvqiaozhen solar farm,88,Solar,2021,38.9036,117.1607
Kajipuram solar farm,30,Solar,2016,16.884,77.587
Shaanxi Shenmu Jingdeng solar farm,50,Solar,2016,38.6721,110.3382
Kaiyang solar farm,25,Solar,2021,22.4569,120.548
Currimao (MERALCO) solar farm,75,Solar,2023,14.5505,121.2717
Shandong Tengzhou (China Nuclear) Agriculture solar farm,50,Solar,2020,35.0844,117.159
Inner Mongolia Xilingol League Zhenglan Banner Huaneng solar farm,30,Solar,2017,42.2646,115.8597
Xinjiang Kashgar Yecheng Fenglin solar farm,20,Solar,2015,37.8465,77.451
Hebei Yixian Yiyuan solar farm,30,Solar,2016,39.31,115.271
Ningxia Helan Changxinxiang Jingneng solar farm,30,Solar,2015,38.6736,106.304
Qinghai Province Golmud Qinghai Hydropower Grid-Connected solar farm,20,Solar,2012,36.3538,95.115
Guangxi Xiangzhou Luoxiu Nali (China Aviation) solar farm,50,Solar,2023,23.9816,109.7011
Liaoning Yingkou Kanghu New Materials Rooftop solar farm,30.4,Solar,2023,40.631,122.531
Qinghai Haixi Dachaidan (China Energy Investment) solar project,500,Solar,2022,38.0627,94.9594
Hirono (X-Elio) solar farm,25,Solar,2016,40.2224,141.6816
Xinjiang Corps Shihezi (China Energy Construction) solar farm,120,Solar,2023,44.3099,85.8901
Shandong Lijin Diaokouxiang (Xinyuan) solar farm,40,Solar,2021,38.0283,118.6264
"Jiangsu Sheyang Salt Field ""Fisheries"" Photovoltaic solar farm",20,Solar,2017,33.0001,120.0001
Hunan Xiangtan Shitan Fishery solar farm,60,Solar,2023,27.7611,112.711
Anhui Jiaoqu Tongshanzhen solar farm,90,Solar,2022,30.9125,117.8035
"Shanxi Datong ""Front Runner"" Nanjiao Heguang solar farm",100,Solar,2016,40.1087,113.093
Sichuan Province Ganzi Huogulongcun solar farm,50,Solar,2015,31.6259,100.0217
Qinghai Province Haibei Gangcha Wuxian Grid-Connected solar farm,20,Solar,2014,37.3271,100.1452
Xinjiang Bozhou Yuli Alashankou Dongbei Grid-Connected solar farm,50,Solar,2015,44.9303,82.5986
Guangxi Wuzhou Changzhou Water Resources Hub solar power plant,20,Solar,2017,23.443,111.2096
Xinjiang Hetian Luopu (Zhongdiantou) solar farm,20,Solar,2014,37.0231,79.7824
Sichuan Hongyuan Qiongxi solar farm,20,Solar,2015,32.7948,102.5597
Qinghai Province Golmud Three Gorges Grid-Connected solar farm,20,Solar,2012,36.399,95.1318
Inner Mongolia Linxi Guangou (Datang) solar farm,100,Solar,2023,43.8302,118.2095
Inner Mongolia Balin Right Banner Lishuo solar farm,30,Solar,2017,44.2525,118.9388
Gansu Province Gaotai Gaoyazitan Taike Grid-Connected solar farm,50,Solar,2013,39.2868,99.4961
Inner Mongolia Alashan Barunbieli Guodian solar farm,40,Solar,2015,38.5547,105.6484
Pekan (Ragawang) solar farm,50,Solar,2023,1.5068,103.5127
Yunnan Shidian Muguashan Sunshine solar farm,30,Solar,2014,24.6327,99.194
Guizhou Xingren Panjiazhuang Jiebahe Agriculture solar farm,30,Solar,2019,25.5986,105.1748
Yunnan Qiaojia Baigoulin solar farm,200,Solar,2023,26.9269,103.278
Jiangxi Jiujiang Pengze solar farm,20,Solar,2019,30.0337,116.7136
Qinghai Province Golmud Sunshine Energy Grid-Connected solar farm,20,Solar,2013,36.3293,94.7993
Hebei Kangbao Xitan (Huaneng) solar farm,20,Solar,2016,41.8501,114.624
Ilagan City Solar Power Project,80,Solar,2023,17.1284,121.8692
Guangdong Suixi Yangqing Shenlicun Agriculture solar farm,20,Solar,2017,21.358,110.062
Gansu Province Liangzhou Aotesiwei Grid-Connected solar farm,50,Solar,2013,38.1033,102.3065
Inner Mongolia Bayannaoer Solar/Storage/Ecological Management complex,850,Solar,2023,40.3322,107.0132
Bhadla (Fortum) Solar Park,70,Solar,2017,27.484,71.957
Zhejiang Jinhua Pan'an (Huadian) solar farm,60,Solar,2023,28.9602,120.5802
Heilongjiang Zhaodong Taiguang solar farm,20,Solar,2017,45.878,125.7599
Shandong Weishan Liangchen Zhongguang solar farm,20,Solar,2017,35.1371,116.735
Hainan Baisha Bangxi (Guodiantou) solar farm,100,Solar,2023,19.3699,109.104
Jiangsu Yancheng Xiangshui Yongneng solar farm,20,Solar,2014,34.2011,119.5723
Shaanxi Baishui Xiguzhen (Jingneng) solar farm,200,Solar,2021,35.2222,109.5172
Sendai Imozawa Solar Power Plant,30,Solar,2020,38.3082,140.7177
KN solar farm,135,Solar,2018,16.2971,75.6676
Tibet Xaitongmoin SPIC solar farm,30,Solar,2017,29.4353,88.2595
Inner Mongolia Xinhe Sunshine solar farm,20,Solar,2016,46.7345,122.9339
Wagdari solar farm,50,Solar,2018,17.608,76.375
Xinjiang Hami Tianrun solar farm,20,Solar,2013,44.7063,94.0963
Zmorot solar farm,50,Solar,2016,31.2468,34.7099
Auraiya I solar farm,20,Solar,2022,26.632,79.533
Jiangxi Yifeng Shishi (Datang) solar farm,80,Solar,2023,28.3974,114.7982
Samekawa Seiono Solar Power Plant,41,Solar,2023,37.0126,140.499
Qinghai Hainanzhou 2020-14 Plot solar farm,100,Solar,2020,36.2672,100.6283
Xinjiang Hami Sinohydro solar farm,20,Solar,2013,43.0366,93.6533
LS Nasu Nakagawa Solar Power Plant,20,Solar,2016,36.7569,140.092
Trung Nam solar farm,255,Solar,2019,11.7439,109.0589
Hubei Shayang Guandang Lvdong solar farm,30,Solar,2017,30.6109,112.5028
Ningxia Ningdong Shenergy solar power plant,50,Solar,2023,38.1653,106.586
Al Mazyunah solar farm,558,Solar,2015,17.8391,52.6576
Hunan Ningxiang Poverty Alleviation solar project,28.9,Solar,2019,28.1371,112.3023
Ningxia Wuzhong Yanchi Guoxin solar farm,100,Solar,2016,37.9061,107.1138
Hubei Qujialing (Datang) Agriculture solar farm,41,Solar,2021,30.8287,112.9374
Hubei Province Suixian Yindian solar farm,150,Solar,2015,32.105,113.4753
Hebei Quyang (Meiheng) solar farm,200,Solar,2022,38.6778,114.6558
Shanxi Datong Jingneng Panda solar farm,50,Solar,2017,39.9711,113.484
Bijapur solar farm,42,Solar,2018,16.5601,75.5778
Phong Điền solar farm,48,Solar,2018,16.693,107.432
Jiangxi Qianshan Yongping Copper Mine solar farm,20,Solar,2017,28.2034,117.7541
Anhui Province Liu'an Jinzhai Xinrui solar farm,100,Solar,2017,31.7541,116.0393
"Qinghai Province Delingha ""Front Runner"" solar farm",100,Solar,2018,37.3656,97.1583
Xinjiang Hetian Luopu (Zhongdiantou) solar farm,20,Solar,2014,37.0231,79.7824
Hitoyoshi Solar Power Plant,21,Solar,2023,32.1105,130.7096
Tomakomai solar farm,38,Solar,2017,42.765,141.643
Shaanxi Dingbian Huayang Jiahe solar farm,30,Solar,2020,37.7683,107.6354
Yunnan Eshan Tagemo solar farm,50,Solar,2018,24.387,102.1868
Anhui Province Shouxian Anfengzhen Xinyi Guangneng Fishing and Light Complementary solar farm,100,Solar,2015,32.1477,116.7733
Zhejiang Nanxun Hefu (Shenglin) Photovoltaic solar farm,25,Solar,2018,29.0001,120.0001
Jiangsu Changshu Fushan Photovoltaic solar plant,45,Solar,2017,33.0001,120.0001
Ningxia Lingwu Shagou Angli solar farm,20,Solar,2014,37.9724,106.5454
Shandong Canzhuang (Huaneng) solar farm,60,Solar,2023,37.405,120.258
Parasan (SJVN) solar farm,75,Solar,2022,25.955,79.695
Zhejiang Cixi fisheries (Xieneng) Photovoltaic solar farm,110,Solar,2019,30.0904,121.6082
Glae Solar Power Plant,10,Solar,2016,30.141,35.815
Shanxi Ningwu Yuzhuang (CGN) solar farm,50,Solar,2020,38.9231,112.2585
San Miguel Solar Power Project,80,Solar,2022,15.1975,120.9936
Shaanxi Pucheng Gaoyang solar power plant,100,Solar,2023,35.8894,109.1357
Inner Mongolia Dalate Banner (Zhongheng) solar farm,100,Solar,2023,40.4509,109.6145
Xinjiang Kezhou Xinlong solar farm,20,Solar,2016,39.7165,75.2635
Ningxia Lingwu Hanjiagou (Guodian) solar farm,100,Solar,2021,37.8314,106.3426
Zhejiang Jiangshan Fenglin Tonking solar farm,30,Solar,2014,28.5625,118.4784
Sichuan Jinchuan Gasiducun solar farm,200,Solar,2023,31.6211,101.4294
Jiangsu Province Taizhou Xinghua Fishpond Watersurface solar farm,80,Solar,2014,33.1447,119.7235
Inner Mongolia Chayouhouqi Hongmu Datang solar farm,20,Solar,2014,41.2679,113.0511
Hebei Xingtai Ningjin CGN solar farm,20,Solar,2017,37.4866,114.9773
Hirono (Orix) solar farm,24,Solar,2019,40.4082,141.7185
Anhui Province Suzhou Lingbi Qingyang solar farm,120,Solar,2016,33.8911,117.6346
Zhejiang Jiashan Taozhuangzhen Xiamudang fisheries Photovoltaic solar farm,70,Solar,2016,29.0001,120.0001
Xinjiang Toksun Golden Sunsolar Project,20,Solar,2016,42.7806,88.636
Inner Mongolia Moli Jiuzhou Poverty Alleviation solar farm,49,Solar,2018,48.4718,124.489
Piparadi solar farm,30,Solar,2019,21.426,71.608
Shanxi Yangquan Qianmuping Changsheng solar farm,20,Solar,2017,37.9563,113.6111
Hainan Danzhou (Huadian) Agricultural solar farm,100,Solar,2023,19.817,109.485
Tibet Damxung Geda Jiatian solar farm,30,Solar,2016,29.8882,90.3621
Tianjin Haijing Salt-Light Complementary (Longyuan) solar project,580,Solar,2023,38.963,117.639
Lộc Ninh solar farm,200,Solar,2020,11.8233,106.6052
Xinjiang Hami Yandun (Huadian) solar farm,50,Solar,2022,42.8983,93.4954
Anhui Xuanzhou Hantingzhen Integrated solar farm,100,Solar,2021,30.909,118.531
Qinghai Province Haibei Gangcha Yizhao Grid-Connected solar farm,20,Solar,2014,37.3271,100.1452
Qinghai Province Golmud Rixin Grid-Connected solar farm,21,Solar,2017,36.3717,95.2628
Miya River Watarai Solar Park,60,Solar,2023,34.3865,136.5741
Amazon Solar Farm India - Rajasthan Jaisalmer,210,Solar,2023,26.2414,71.1785
Xinjiang Tumushuke Atlas solar farm,30,Solar,2013,39.8629,79.0738
Anhui Changfeng Zhuxiangzhen Qilicun solar farm,20,Solar,2015,32.3091,117.2534
Ningxia Tenggeli Desert solar project,3000,Solar,2023,37.5356,105.0446
"Inner Mongolia Erdos Dalate Banner ""Lead from the Front"" solar farm",200,Solar,2018,40.4465,108.8497
Hebei Qiuxian Huangming Distributed solar farm,20,Solar,2016,36.8201,115.1801
Xinjiang Kashgar Yuepuhu Ruicheng solar farm,20,Solar,2014,39.0654,76.7786
Anhui Taihe Xiaokouzhen Wangyaocun Agriculturtal solar farm,20,Solar,2016,33.1832,115.4286
Karnataka 3 solar farm,54,Solar,2017,14.141,76.683
Ningxia Zhongning Yudingxiang (Zhonghe) solar farm,150,Solar,2021,37.5132,105.5644
Yunnan Zhanyi Lingjiao Agriculture solar farm,100,Solar,2023,25.792,103.7589
Beed solar farm,30,Solar,2018,20.024,75.1623
Jilin Tongyu Shidaohuaxiang Famude Agriculture solar farm,30,Solar,2022,44.7847,122.7604
Xinjiang Wujiaqu 6th Division Fangcaohu Farm Lishang solar farm,20,Solar,2016,44.7183,86.5243
Kamalpur SUTIP solar farm,24.2,Solar,2014,23.049,71.869
Gansu Wuwei Liangzhou (China Power International) solar power plant,70,Solar,2021,37.8539,102.8381
Guangdong Xuwen Qujiezhen (Haoneng) Fishery solar farm,20,Solar,2017,20.461,110.337
Xinjiang Corps Shihezi (Jilin Power) Unsubsidized solar power plant,600,Solar,2021,44.7063,94.0963
Bến Cầu HCG & HTG solar farm,50,Solar,2019,11.1014,106.1625
Guangxi Dongxi Jiangpingzhen (Haoyang) Fishery solar farm,150,Solar,2021,21.54,108.1162
Jiangxi Nanchang Jiangxiang Sandonghu solar farm,40,Solar,2016,28.7927,116.1101
Kawakami Solar Project,31,Solar,2021,36.1751,139.1985
Shanxi Xiangyuan Yuanguang solar farm,80,Solar,2022,36.4907,113.0615
Shajapur solar park,105,Solar,2023,23.418,76.2705
Hunan Loudi Lianyuan Desertification Area solar farm,100,Solar,2023,27.7593,111.8215
Nari Aizu solar farm,21,Solar,2018,31.465,131.2283
Tibet Gyantse Huarun solar farm,20,Solar,2016,29.0414,89.4303
Hebei Olympic Photovoltaic Corridor Project solar farm,40,Solar,2017,40.3083,115.5845
Guangxi Qinnan Xiniujiaozhen (Xin'ao) solar farm,300,Solar,2022,21.639,108.795
"Qinghai Golmud ""Front Runner"" Three Gorges No.1 solar farm",100,Solar,2018,36.3798,95.0911
Yunnan Binchuan Daying Datang solar farm,30,Solar,2015,25.7886,100.463
Inner Mongolia Urad Rear Banner Qingshan Guodian solar farm,40,Solar,2015,40.9133,106.6784
Miraah solar farm,100,Solar,2018,23.6056,58.236
Karnataka (Adani) III solar farm,20,Solar,2021,14.2965,75.7504
Hebei Jidong Oilfiield solar farm,41,Solar,2022,39.2872,118.387
Jiangxi Gao'an Jinjian Distributed solar farm,20,Solar,2017,28.4492,115.3622
"Heilongjiang Province Anda ""Unsubsidized"" solar farm",500,Solar,2019,46.1732,125.0801
Yokkaichi Solar Power Plant,22,Solar,2019,34.9855,136.5125
Kadapa (Engie) Ultra Mega Solar Park,50,Solar,2020,14.9185,78.2867
Shanxi Provvince Datong Dangliuxiang Xiexin solar farm,60,Solar,2014,39.9793,113.4365
Al Kharsaah Solar,350,Solar,2022,25.2353,51.0137
Liaoning Chaoyang Lingyuan Dongda solar farm,20,Solar,2017,41.2422,119.4073
Jiangxi Province Guixi Zhongyuan solar farm,50,Solar,2016,28.394,117.2819
Sprng Photovoltaic solar farm,50,Solar,2017,27.384,72.242
Inner Mongolia Chifeng Changsheng Guodian solar farm,40,Solar,2015,42.8475,120.3797
Hebei Laiyuan Shou'ao solar farm,30,Solar,2017,39.3641,114.6914
Lộc Ninh solar farm,200,Solar,2020,11.934,106.459
Guangxi Province Nanning Yangming Farm solar farm,50,Solar,2016,22.525,108.182
Saemangeum Hope solar farm,99,Solar,2020,35.938,126.601
Yunnan Jingdong Jiangbian Paling solar farm,78,Solar,2023,24.6383,100.4868
Guizhou Zhenfeng Zhexiang (Changsheng) solar farm,40,Solar,2020,25.3881,105.3874
Qinghai Hualong Xiehe solar farm,20,Solar,2019,35.9757,102.1452
Guangxi Tengxian Xinqing Agriculture solar farm,149,Solar,2023,23.261,110.716
Inner Mongolia Qingshuihe (Guangdong Wind Power) solar farm,300,Solar,2023,39.9543,112.0621
Lộc Ninh solar farm,200,Solar,2020,11.934,106.459
Surendranagar (Avaada) solar farm,300,Solar,2021,22.9896,71.4664
Xinjiang Tumushuke Zhengtai solar farm,20,Solar,2017,39.8638,79.0693
Anhui Fengyang Dayutang (CGN) solar farm,40,Solar,2020,32.827,117.6121
Shandong Tengzhou Binhu (Qingyang) solar farm,150,Solar,2022,35.1353,116.9051
Guangxi Guigang Qintang District Northern No.1 Region solar farm,350,Solar,2023,23.1346,109.4445
Xinjiang Yili GCL Energy solar farm,30,Solar,2015,44.2776,80.4616
Ningxia Yanchi Zhongmin Xinneng Compound solar farm,200,Solar,2019,38.0016,107.0467
Hebei Tangshan Lutai Development Zone Distributed solar farm,50,Solar,2022,39.358,117.735
Pursat solar farm,30,Solar,2021,12.5287,104.2101
Shanxi Yangqu Nengtou solar farm,20,Solar,2017,38.0589,112.6725
Xinjiang Aketao (State Power Investment) solar farm,100,Solar,2023,39.055,75.898
Anhui Province Tianchang Huahui solar farm,80,Solar,2022,32.6514,119.2012
Jilin Longjing Zhongji solar farm,20,Solar,2016,42.7641,129.4206
Otawara C solar farm,20,Solar,2017,36.8441,140.0904
Shaanxi Yichuan Huadian solar power plant,250,Solar,2023,37.2969,108.4504
Ningxia Yudingxiang Huangyangcun solar farm,200,Solar,2020,37.5133,105.5646
Anhui Tongcheng Shuangangzhen fisheries solar farm,100,Solar,2019,30.808,116.984
Hunan Miluo Shuangheba Poverty Alleviation solar farm,20,Solar,2019,28.9344,113.0023
Tianyang solar farm,100,Solar,2023,23.1071,120.1265
Shanghai Chongming Lvhuazhen Fishery solar farm,44,Solar,2021,31.6313,121.5338
Guangdong Lianping Dahu (Guangzhou Development) Agricultural solar power plant,22,Solar,2016,24.238,114.838
Shanxi Xiyang Hufeng Sineng solar farm,30,Solar,2017,37.6423,113.4228
Yunnan Shilin Dadiliangzi solar farm,70,Solar,2023,24.8344,103.6457
Anhui Jiaoqu Chenyaohuzhen Yangxu (Huaneng) solar farm,50,Solar,2021,30.9125,117.8035
Qinghai Province Delingha Xiehe solar farm,20,Solar,2013,37.3764,97.1916
Inner Mongolia Zhalainuo'er (Huaneng) solar farm,100,Solar,2020,49.4083,117.6902
Zhejiang Jingning Hongxing Street solar farm,52,Solar,2020,27.9971,119.6338
Rajasthan 9 solar farm,257,Solar,2022,25.1862,75.8589
Shandong Ouyu Luneng solar farm,20,Solar,2019,35.2272,117.403
Watari Solar Power Plant,49,Solar,2019,38.006,140.909
Xinjiang Shanshan Anpeiqi solar farm,20,Solar,2016,44.7063,94.0963
Henan Fugouxian Agricultural Ecological Greenhouse solar farm,30,Solar,2017,34.0789,114.3046
Ningxia Yuanzhou Pengpu Zhenfa solar farm,30,Solar,2013,36.0037,106.2837
Hebei Huai Tumuzhen CECEP solar farm,20,Solar,2016,40.3753,115.5967
Hunan Province Sifen Yatang Reservoir solar farm,50,Solar,2022,27.5132,113.4697
Qinghai Province Hainanzhou Gonghe Hanergy Grid-Connected solar farm,50,Solar,2015,36.2017,100.604
Jiangxi Jiujiang Jinko Saichenghu solar farm,20,Solar,2020,29.7015,115.9231
Ananthapuramu (Ayana) Ultra Mega Solar Park,100,Solar,2020,14.0278,78.4281
Tainan Salt Fields solar farm,150,Solar,2021,23.9739,120.982
Patan solar farm,105,Solar,2021,23.8605,72.1152
Shandong Dongying Kenli (China Resources) solar farm,100,Solar,2023,37.5895,118.5497
Tsukuba solar farm,35,Solar,2017,36.1314,140.0742
Kurdi HFE solar farm,50,Solar,2017,16.134,77.128
Jiangxi Jing'an Renshou SPIC solar farm,20,Solar,2016,28.8725,115.4826
Blue Power Bandai Inawashiro Solar Power Plant,25,Solar,2023,37.6631,139.9781
Surendranagar (Samta) solar farm,25,Solar,2012,22.726,71.432
Shaanxi Dingbian Longpan solar farm,30,Solar,2022,37.7722,107.7202
Xinjiang Kashgar Shule Lineng solar farm,20,Solar,2015,39.401,76.0476
Shaanxi Linyou Jiawangyuan (Datang) Agriculture solar farm,33.5,Solar,2020,34.7748,107.8093
Xinjiang Bozhou Jinghe Aikang Grid-Connected solar farm,30,Solar,2016,44.6102,82.8847
Jiangsu Hongze Baimahu solar farm,20,Solar,2012,33.2685,119.1236
Xinjiang Xikanyuan Shichengzi solar farm,20,Solar,2016,43.0335,93.5884
Zhejiang Longquan Fengpingyan Photovoltaic solar farm,30,Solar,2017,29.0001,120.0001
Gansu Shandan Dongletan Photovoltaic Base State Power Investment solar power plant,100,Solar,2022,38.846,100.949
Shandong Wudi Youfa solar farm,29,Solar,2017,38.0258,118.0289
Shandong Jining Baishizhen solar farm,20,Solar,2016,35.7986,116.6009
Guizhou Liping Dajia Pingge solar farm,100,Solar,2023,26.3617,108.8557
Thac Mo solar farm,50,Solar,2020,11.855,107.0201
Guizhou Guanling Gangwu Agriculture solar farm,150,Solar,2023,25.9683,105.5249
"Shaanxi Province Weinan ""Front Runner"" Zhangjiahe solar farm",100,Solar,2019,35.2407,110.008
